SALE TYPE,SOLD DATE,PROPERTY TYPE,ADDRESS,CITY,STATE,ZIP,PRICE,BEDS,BATHS,LOCATION,SQUARE FEET,LOT SIZE,YEAR BUILT,DAYS ON MARKET,$/SQUARE FEET,HOA/MONTH,STATUS,NEXT OPEN HOUSE START TIME,NEXT OPEN HOUSE END TIME,URL (SEE http://www.redfin.com/buy-a-home/comparative-market-analysis FOR INFO ON PRICING),SOURCE,MLS#,FAVORITE,INTERESTED,LATITUDE,LONGITUDE
MLS Listing,,Single Family Residential,15621 3rd Ave NE,Shoreline,WA,98155,599950,4,1.75,Ridgecrest,1670,7200,1953,1,359,,Active,October-6-2018 11:00 AM,October-6-2018 01:00 PM,http://www.redfin.com/WA/Shoreline/15621-3rd-Ave-NE-98155/home/85195,NWMLS,1369899,N,Y,47.7425101,-122.3267467
MLS Listing,,Single Family Residential,708 Olympia Ave NE,Renton,WA,98056,775000,5,2.75,Highlands,2900,6240,2015,1,267,,Active,October-6-2018 11:00 AM,October-6-2018 01:00 PM,http://www.redfin.com/WA/Renton/708-Olympia-Ave-NE-98056/home/69356891,NWMLS,1369086,N,Y,47.4952663,-122.1719761
MLS Listing,,Single Family Residential,2902 19th Ave S,Seattle,WA,98144,719500,5,2.0,N Beacon Hill,2070,3840,1926,1,348,,Active,October-4-2018 12:00 PM,October-4-2018 02:00 PM,http://www.redfin.com/WA/Seattle/2902-19th-Ave-S-98144/home/168455,NWMLS,1369769,N,Y,47.577667,-122.3077252
MLS Listing,,Condo/Co-op,9710 5th Ave NE #403,Seattle,WA,98115,479999,2,2.0,Northgate,1115,,1979,1,430,526,Active,October-7-2018 11:00 AM,October-7-2018 01:00 PM,http://www.redfin.com/WA/Seattle/9710-5th-Ave-NE-98115/unit-403/home/69090,NWMLS,1369686,N,Y,47.7002373,-122.3227758
MLS Listing,,Condo/Co-op,412 10th St Unit B101,Kirkland,WA,98033,495000,2,1.75,Downtown,925,51573,1985,1,535,418,Active,October-6-2018 02:00 PM,October-6-2018 04:00 PM,http://www.redfin.com/WA/Kirkland/412-10th-St-98033/unit-B101/home/56000,NWMLS,1369630,N,Y,47.6786456,-122.1911878
MLS Listing,,Single Family Residential,1005 W Bertona St,Seattle,WA,98119,850000,2,1.5,Queen Anne,1330,5452,1950,1,639,,Active,October-6-2018 11:00 AM,October-6-2018 01:00 PM,http://www.redfin.com/WA/Seattle/1005-W-Bertona-St-98119/home/130683,NWMLS,1369520,N,Y,47.6503346,-122.3707779
MLS Listing,,Condo/Co-op,1631 16th Ave #119,Seattle,WA,98122,280000,0,1.0,Capitol Hill,402,,1929,1,697,369,Active,October-6-2018 11:00 AM,October-6-2018 01:00 PM,http://www.redfin.com/WA/Seattle/1631-16th-Ave-98122/unit-119/home/65396,NWMLS,1369985,N,Y,47.6160287,-122.3118068
MLS Listing,,Single Family Residential,5116 S Creston St,Seattle,WA,98178,410000,3,1.0,Rainier Beach,1070,7980,1960,1,383,,Active,October-6-2018 02:00 PM,October-6-2018 04:00 PM,http://www.redfin.com/WA/Seattle/5116-S-Creston-St-98178/home/178041,NWMLS,1369147,N,Y,47.5077601,-122.2693406
MLS Listing,,Single Family Residential,7742 25th Ave NW,Seattle,WA,98117,726749,3,2.0,Loyal Heights,1660,5000,1944,2,438,,Active,,,http://www.redfin.com/WA/Seattle/7742-25th-Ave-NW-98117/home/166930,NWMLS,1369543,N,Y,47.6862769,-122.3884275
MLS Listing,,Single Family Residential,16554 18th Ave NE,Shoreline,WA,98155,724950,5,1.75,North City,2200,12486,1948,2,330,,Active,October-6-2018 11:00 AM,October-6-2018 01:00 PM,http://www.redfin.com/WA/Shoreline/16554-18th-Ave-NE-98155/home/88989,NWMLS,1367586,N,Y,47.749867,-122.3079469
MLS Listing,,Single Family Residential,3610 NE 65th St,Seattle,WA,98115,699000,3,1.5,Bryant,1820,5112,1950,3,384,,Active,,,http://www.redfin.com/WA/Seattle/3610-NE-65th-St-98115/home/316407,NWMLS,1368908,N,Y,47.6759648,-122.2884178
MLS Listing,,Single Family Residential,9529 NE 137th St,Kirkland,WA,98034,725000,3,2.25,Finn Hill,1740,9014,1972,5,417,,Active,,,http://www.redfin.com/WA/Kirkland/9529-NE-137th-St-98034/home/277424,NWMLS,1368568,N,Y,47.7223274,-122.2132672
MLS Listing,,Townhouse,13802 Greenwood Ave N,Seattle,WA,98133,510000,3,2.25,Broadview,1310,896,2007,5,389,,Active,,,http://www.redfin.com/WA/Seattle/13802-Greenwood-Ave-N-98133/home/11761663,NWMLS,1366777,N,Y,47.7298075,-122.3552395
MLS Listing,,Townhouse,7549 129th Place SE Unit C101,Newcastle,WA,98056,648000,3,2.5,Lake Boren,1440,210717,2012,5,450,297,Active,October-6-2018 02:00 PM,October-6-2018 04:00 PM,http://www.redfin.com/WA/Newcastle/7549-129th-Pl-SE-98056/unit-C101/home/45464813,NWMLS,1368363,N,Y,47.5346856,-122.1675594
MLS Listing,,Townhouse,208 25th Ave E Unit B,Seattle,WA,98112,845000,2,2.0,Madison Valley,1210,740,2014,5,698,,Active,October-6-2018 02:00 PM,October-6-2018 04:00 PM,http://www.redfin.com/WA/Seattle/208-25th-Ave-E-98112/unit-B/home/62182756,NWMLS,1367178,N,Y,47.620557,-122.299498
MLS Listing,,Condo/Co-op,2721 1st Ave #403,Seattle,WA,98121,599000,1,1.0,Belltown,716,,2005,5,837,526,Active,October-6-2018 11:00 AM,October-6-2018 01:00 PM,http://www.redfin.com/WA/Seattle/2721-1st-Ave-98121/unit-403/home/2064595,NWMLS,1367934,N,Y,47.6160111,-122.351532
MLS Listing,,Single Family Residential,10727 126th Ave NE,Kirkland,WA,98033,724950,4,1.75,North Rose Hill,1860,7400,1976,5,390,,Active,October-6-2018 02:00 PM,October-6-2018 04:00 PM,http://www.redfin.com/WA/Kirkland/10727-126th-Ave-NE-98033/home/513369,NWMLS,1365874,N,Y,47.6971997,-122.1739057
MLS Listing,,Single Family Residential,9700 3rd Ave NW,Seattle,WA,98117,635000,2,1.0,Greenwood,1660,7087,1940,6,383,,Active,October-6-2018 02:00 PM,October-6-2018 04:00 PM,http://www.redfin.com/WA/Seattle/9700-3rd-Ave-NW-98117/home/101136,NWMLS,1366586,N,Y,47.6998567,-122.3603828
MLS Listing,,Condo/Co-op,2960 Eastlake Ave E #314,Seattle,WA,98102,519950,1,1.0,Eastlake,723,,2008,6,719,316,Active,October-6-2018 11:00 AM,October-6-2018 01:00 PM,http://www.redfin.com/WA/Seattle/2960-Eastlake-Ave-E-98102/unit-314/home/21882335,NWMLS,1367305,N,Y,47.648332548,-122.3232847
MLS Listing,,Condo/Co-op,3045 20th Ave W #207,Seattle,WA,98199,395950,2,1.0,Magnolia,707,12002,1988,6,560,370,Active,October-6-2018 02:00 PM,October-6-2018 04:00 PM,http://www.redfin.com/WA/Seattle/3045-20th-Ave-W-98199/unit-207/home/17088502,NWMLS,1366570,N,Y,47.6479091,-122.3824257
MLS Listing,,Single Family Residential,3020 NE 110th St,Seattle,WA,98125,624900,4,1.75,Meadowbrook,1560,7418,1940,6,401,,Active,,,http://www.redfin.com/WA/Seattle/3020-NE-110th-St-98125/home/111158,NWMLS,1366750,N,Y,47.7086157,-122.2952744
MLS Listing,,Single Family Residential,1512 45th Ave SW,Seattle,WA,98116,950000,4,2.5,North Admiral,2170,6250,1910,6,438,,Active,,,http://www.redfin.com/WA/Seattle/1512-45th-Ave-SW-98116/home/149991,NWMLS,1366836,N,Y,47.5901728,-122.3885609
MLS Listing,,Single Family Residential,3432 13th Ave W,Seattle,WA,98119,824900,3,1.75,Queen Anne,1600,6000,1950,6,516,,Active,,,http://www.redfin.com/WA/Seattle/3432-13th-Ave-W-98119/home/131117,NWMLS,1366643,N,Y,47.6513247,-122.3732806
MLS Listing,,Townhouse,614 NW 85th St Unit B,Seattle,WA,98117,669000,3,3.25,Crown Hill,1397,1213,2007,6,479,,Active,,,http://www.redfin.com/WA/Seattle/614-NW-85th-St-98117/unit-B/home/12304079,NWMLS,1366383,N,Y,47.6908263,-122.3641277
MLS Listing,,Condo/Co-op,1752 NW 57th St #1,Seattle,WA,98107,499900,2,1.5,Ballard,802,,1979,6,623,200,Active,,,http://www.redfin.com/WA/Seattle/1752-NW-57th-St-98107/unit-1/home/17250,NWMLS,1366684,N,Y,47.6704177,-122.3811024
MLS Listing,,Single Family Residential,11130 Oakwood Ave S,Seattle,WA,98178,779950,5,3.5,Lakeridge,3400,8103,2004,1,229,,Active,,,http://www.redfin.com/WA/Seattle/11130-Oakwood-Ave-S-98178/home/199131,NWMLS,1370784,N,Y,47.5029499,-122.2325112
MLS Listing,,Single Family Residential,2715 S Elmwood Place,Seattle,WA,98144,850000,3,2.25,Leschi,2420,2805,1910,1,351,,Active,October-4-2018 11:00 AM,October-4-2018 02:00 PM,http://www.redfin.com/WA/Seattle/2715-S-Elmwood-Pl-98144/home/149211,NWMLS,1370710,N,Y,47.5924543,-122.2971726
MLS Listing,,Townhouse,301 16th Ave S,Seattle,WA,98144,685206,3,2.25,Central Area,1424,1199,2007,1,481,,Active,October-4-2018 11:30 AM,October-4-2018 01:00 PM,http://www.redfin.com/WA/Seattle/301-16th-Ave-S-98144/home/12305690,NWMLS,1367083,N,Y,47.5996996,-122.311759
MLS Listing,,Single Family Residential,111 N 77th St,Seattle,WA,98103,789000,2,1.0,Phinney Ridge,1590,4635,1909,1,496,,Active,,,http://www.redfin.com/WA/Seattle/111-N-77th-St-98103/home/498780,NWMLS,1368797,N,Y,47.6845446,-122.3573951
MLS Listing,,Single Family Residential,7872 NE Ledgestone Lp,Bainbridge Island,WA,98110,989500,3,3.0,Stetson Ridge,3719,21780,2007,1,266,8,Active,October-4-2018 10:00 AM,October-4-2018 01:00 PM,http://www.redfin.com/WA/Bainbridge-Island/7872-Ledge-Stone-Loop-NE-98110/home/12099516,NWMLS,1368985,N,Y,47.6279961,-122.5081981
MLS Listing,,Single Family Residential,662 Madison Ave N #4,Bainbridge Island,WA,98110,499000,2,2.25,Winslow,1166,20,1994,1,428,,Active,,,http://www.redfin.com/WA/Bainbridge-Island/662-Madison-Ave-N-98110/unit-4/home/147391620,NWMLS,1369153,N,Y,47.6296904,-122.5207833
MLS Listing,,Single Family Residential,12313 NE 162nd St,Bothell,WA,98011,829950,4,2.25,Bothell,3060,11631,1977,1,271,,Active,,,http://www.redfin.com/WA/Bothell/12313-NE-162nd-St-98011/home/454218,NWMLS,1370721,N,Y,47.744876,-122.175281
MLS Listing,,Single Family Residential,7048 25th Ave NE,Seattle,WA,98115,799950,3,1.5,Ravenna,1920,5100,1970,1,417,,Active,October-7-2018 02:00 PM,October-7-2018 04:00 PM,http://www.redfin.com/WA/Seattle/7048-25th-Ave-NE-98115/home/316789,NWMLS,1369609,N,Y,47.6808278,-122.3003861
MLS Listing,,Single Family Residential,17610 NE 29th St,Redmond,WA,98052,995000,4,3.0,Idylwood,3480,10763,1977,1,286,,Active,,,http://www.redfin.com/WA/Redmond/17610-NE-29th-St-98052/home/502973,NWMLS,1361442,N,Y,47.6365008,-122.1048689
MLS Listing,,Single Family Residential,3026 S Othello St,Seattle,WA,98108,499500,3,1.0,Beacon Hill,1360,6785,1954,1,367,,Active,,,http://www.redfin.com/WA/Seattle/3026-S-Othello-St-98108/home/479847,NWMLS,1370420,N,Y,47.5372488,-122.2920144
MLS Listing,,Single Family Residential,7512 116th Ave NE,Kirkland,WA,98033,799000,3,2.5,Kirkland,2340,7100,1971,1,341,,Active,October-4-2018 04:00 PM,October-4-2018 06:00 PM,http://www.redfin.com/WA/Kirkland/7512-116th-Ave-NE-98033/home/514399,NWMLS,1370646,N,Y,47.6723189,-122.185284
MLS Listing,,Single Family Residential,17027 NE 160th Place,Woodinville,WA,98072,945000,4,2.5,Hollywood Hill,2780,32400,1983,1,340,,Active,October-6-2018 01:00 PM,October-6-2018 04:00 PM,http://www.redfin.com/WA/Woodinville/17027-NE-160th-Pl-98072/home/447920,NWMLS,1369800,N,Y,47.743992,-122.111696
MLS Listing,,Single Family Residential,13245 SE May Creek Park Dr,Newcastle,WA,98059,671309,3,1.75,Newcastle,1800,18039,1962,1,373,,Active,October-6-2018 12:00 PM,October-6-2018 03:00 PM,http://www.redfin.com/WA/Newcastle/13245-SE-89th-Pl-98059/home/414643,NWMLS,1369366,N,Y,47.5232454,-122.1595274
MLS Listing,,Single Family Residential,2719 NE 92nd St,Seattle,WA,98115,840000,3,2.5,Wedgwood,2380,10585,1920,1,353,,Active,October-6-2018 01:00 PM,October-6-2018 03:00 PM,http://www.redfin.com/WA/Seattle/2719-NE-92nd-St-98115/home/317195,NWMLS,1369877,N,Y,47.6955156,-122.2977995
MLS Listing,,Townhouse,4012 Linden Ave N Unit B,Seattle,WA,98103,785000,3,2.0,Fremont,1410,1092,2012,1,557,,Active,October-4-2018 05:00 PM,October-4-2018 07:00 PM,http://www.redfin.com/WA/Seattle/4012-Linden-Ave-N-98103/unit-B/home/40408971,NWMLS,1370471,N,Y,47.6557909,-122.3482746
MLS Listing,,Townhouse,3128 A Wetmore Ave S,Seattle,WA,98144,679000,3,1.75,Mt Baker,1737,1204,2018,1,391,,Active,October-4-2018 12:00 PM,October-4-2018 02:00 PM,http://www.redfin.com/WA/Seattle/3128-Wetmore-Ave-S-98144/home/171498,NWMLS,1346797,N,Y,47.5750749,-122.2936431
MLS Listing,,Single Family Residential,865 170th Place NE,Bellevue,WA,98008,765000,3,1.75,Lochmoor,1210,8250,1962,1,632,,Active,,,http://www.redfin.com/WA/Bellevue/865-170th-Pl-NE-98008/home/500903,NWMLS,1370113,N,Y,47.6188264,-122.1135409
MLS Listing,,Townhouse,6530 NE 171st Place,Kenmore,WA,98028,609000,2,2.25,Inglewood/Inglemoor,1680,2128,1974,1,363,370,Active,,,http://www.redfin.com/WA/Kenmore/6530-NE-171st-Pl-98028/home/281324,NWMLS,1370637,N,Y,47.752707,-122.2522261
MLS Listing,,Single Family Residential,5031 35th Ave S,Seattle,WA,98118,600000,3,1.0,Columbia City,1020,6500,1901,1,588,,Active,,,http://www.redfin.com/WA/Seattle/5031-35th-Ave-S-98118/home/172423,NWMLS,1370145,N,Y,47.5563089,-122.2897179
MLS Listing,,Townhouse,8817 123rd Lane NE,Kirkland,WA,98033,749950,3,2.5,Rose Hill,1605,,1997,1,467,476,Active,,,http://www.redfin.com/WA/Kirkland/8817-123rd-Ln-NE-98033/home/67233,NWMLS,1370628,N,Y,47.6816237,-122.176484
MLS Listing,,Townhouse,1521 139th Lane NE #48,Bellevue,WA,98005,889880,3,2.25,Crossroads,1504,,2018,1,592,162,Active,October-5-2018 11:00 AM,October-5-2018 05:00 PM,http://www.redfin.com/WA/Bellevue/1521-139th-Ln-NE-98005/unit-48/home/147388475,NWMLS,1370350,N,Y,47.624476,-122.155536
MLS Listing,,Single Family Residential,270 Grow Ave NW,Bainbridge Island,WA,98110,950000,3,3.0,Winslow,2004,3338,2018,1,474,,Active,,,http://www.redfin.com/WA/Bainbridge-Island/270-Grow-Ave-NW-98110/home/145636285,NWMLS,1369275,N,Y,47.6264708,-122.524522
MLS Listing,,Townhouse,1533 139th Lane NE #47,Bellevue,WA,98005,888880,3,2.25,Crossroads,1504,,2018,1,591,162,Active,October-5-2018 11:00 AM,October-5-2018 05:00 PM,http://www.redfin.com/WA/Bellevue/1533-139th-Ln-NE-98005/unit-47/home/147388424,NWMLS,1370311,N,Y,47.624476,-122.155536
MLS Listing,,Single Family Residential,5011 Illahee Rd NE,Bremerton,WA,98311,409000,3,2.5,Illahee,1907,23087,1995,1,214,,Active,October-7-2018 01:00 PM,October-7-2018 03:00 PM,http://www.redfin.com/WA/Bremerton/5011-Illahee-Rd-NE-98311/home/2284385,NWMLS,1367284,N,Y,47.608796,-122.599193
MLS Listing,,Condo/Co-op,18707 SE Newport Wy #302,Issaquah,WA,98027,508000,2,1.75,Lakemont,1186,114134,2005,1,428,428,Active,October-4-2018 01:00 PM,October-4-2018 02:30 PM,http://www.redfin.com/WA/Issaquah/18707-SE-Newport-Way-98027/unit-302/home/17078233,NWMLS,1366386,N,Y,47.5595541,-122.0910877
MLS Listing,,Single Family Residential,2025 178th Ave NE,Redmond,WA,98052,900000,3,2.25,Microsoft,2250,12920,1987,1,400,,Active,October-6-2018 01:00 PM,October-6-2018 04:00 PM,http://www.redfin.com/WA/Redmond/2025-178th-Ave-NE-98052/home/502435,NWMLS,1369382,N,Y,47.6284229,-122.102667
MLS Listing,,Mobile/Manufactured Home,4686 Aiken Rd SE,Port Orchard,WA,98366,189900,0,,Port Orchard,1296,61855,1991,1,147,,Active,,,http://www.redfin.com/WA/Port-Orchard/4686-Aiken-Rd-SE-98366/home/2433654,NWMLS,1370556,N,Y,47.5063907,-122.6032783
MLS Listing,,Single Family Residential,2304 S Judkins St,Seattle,WA,98144,799000,4,2.5,Judkins,1748,1744,2004,1,457,23,Active,October-4-2018 11:00 AM,October-4-2018 01:00 PM,http://www.redfin.com/WA/Seattle/2304-S-Judkins-St-98144/home/2076522,NWMLS,1368841,N,Y,47.5920636,-122.3020835
MLS Listing,,Townhouse,15429 135th Place NE Unit 35B,Woodinville,WA,98072,485000,2,2.25,West Woodinville,1308,,1998,1,371,397,Active,,,http://www.redfin.com/WA/Woodinville/15429-135th-Pl-NE-98072/unit-35B/home/26308,NWMLS,1369971,N,Y,47.7392478,-122.1607146
MLS Listing,,Condo/Co-op,11056 NE 33rd Place Unit C6,Bellevue,WA,98004,439000,2,1.0,Yarrow,852,135313,1987,1,515,402,Active,,,http://www.redfin.com/WA/Bellevue/11056-NE-33rd-Pl-98004/unit-C6/home/12093505,NWMLS,1369857,N,Y,47.6422972,-122.1928009
MLS Listing,,Single Family Residential,7712 37th Ave S,Seattle,WA,98118,539000,2,1.5,Beacon Hill,2000,8576,1960,1,270,,Active,October-4-2018 11:00 AM,October-4-2018 01:00 PM,http://www.redfin.com/WA/Seattle/7712-37th-Ave-S-98118/home/480467,NWMLS,1365645,N,Y,47.5333337,-122.2857158
MLS Listing,,Single Family Residential,7016 28th Ave NW,Seattle,WA,98117,835000,3,2.0,Ballard,1640,2624,1987,1,509,,Active,,,http://www.redfin.com/WA/Seattle/7016-28th-Ave-NW-98117/home/165822,NWMLS,1367237,N,Y,47.6800221,-122.3926151
MLS Listing,,Single Family Residential,7681 Weaver Rd NW,Bainbridge Island,WA,98110,620000,3,1.0,Winslow,1200,18731,1955,1,517,,Active,October-7-2018 12:00 PM,October-7-2018 02:00 PM,http://www.redfin.com/WA/Bainbridge-Island/7681-Weaver-Rd-NW-98110/home/2266404,NWMLS,1366867,N,Y,47.632906,-122.532064
MLS Listing,,Single Family Residential,1100 NE 123rd St,Seattle,WA,98125,679950,4,1.25,Pinehurst,2080,8610,1956,1,327,,Active,,,http://www.redfin.com/WA/Seattle/1100-NE-123rd-St-98125/home/105808,NWMLS,1370430,N,Y,47.7178583,-122.3157824
MLS Listing,,Single Family Residential,4910 30th Ave S,Seattle,WA,98108,680000,3,2.25,Beacon Hill,1620,8677,1977,1,420,,Active,October-4-2018 12:00 PM,October-4-2018 03:00 PM,http://www.redfin.com/WA/Seattle/4910-30th-Ave-S-98108/home/479327,NWMLS,1367228,N,Y,47.5579344,-122.2939265
MLS Listing,,Townhouse,8520 Midvale Ave N Unit B,Seattle,WA,98103,724950,3,2.25,Green Lake,1234,1234,2003,1,587,,Active,,,http://www.redfin.com/WA/Seattle/8520-Midvale-Ave-N-98103/unit-B/home/105575,NWMLS,1363926,N,Y,47.6911348,-122.342144
MLS Listing,,Condo/Co-op,530 Broadway E #503,Seattle,WA,98102,538000,1,1.0,Capitol Hill,637,39466,2007,1,845,352,Active,October-6-2018 12:00 AM,October-6-2018 11:59 PM,http://www.redfin.com/WA/Seattle/530-Broadway-E-98102/unit-503/home/21616679,NWMLS,1365448,N,Y,47.6237244,-122.3206618
MLS Listing,,Vacant Land,6807 Lake Washington Blvd SE,Newcastle,WA,98056,360000,0,,Newcastle,,60654,,1,,,Active,,,http://www.redfin.com/WA/Newcastle/6807-Lake-Washington-Blvd-SE-98056/home/22618738,NWMLS,1369281,N,Y,47.541843,-122.194306
MLS Listing,,Townhouse,11713 Greenwood Ave N Unit D,Seattle,WA,98133,599900,3,2.25,Seattle,1500,1645,2006,1,400,,Active,October-6-2018 12:30 PM,October-6-2018 03:00 PM,http://www.redfin.com/WA/Seattle/11713-Greenwood-Ave-N-98133/unit-D/home/22692022,NWMLS,1367379,N,Y,47.7146857,-122.3558716
MLS Listing,,Single Family Residential,1651 23rd Ave,Seattle,WA,98122,685000,2,1.0,Capitol Hill,1070,5280,1900,1,640,,Active,October-6-2018 12:00 PM,October-6-2018 03:00 PM,http://www.redfin.com/WA/Seattle/1651-23rd-Ave-98122/home/144552,NWMLS,1367985,N,Y,47.616797,-122.3029427
MLS Listing,,Single Family Residential,14208 123rd Ave NE,Kirkland,WA,98034,639000,3,1.5,Kingsgate,1740,8680,1968,1,367,52,Active,October-4-2018 04:30 PM,October-4-2018 07:00 PM,http://www.redfin.com/WA/Kirkland/14208-123rd-Ave-NE-98034/home/456136,NWMLS,1370215,N,Y,47.7287206,-122.1760417
MLS Listing,,Single Family Residential,4137 41st Ave S,Seattle,WA,98118,875000,3,3.0,Mt Baker,2040,3030,1910,1,429,,Active,October-6-2018 02:00 PM,October-6-2018 04:00 PM,http://www.redfin.com/WA/Seattle/4137-41st-Ave-S-98118/home/488713,NWMLS,1370317,N,Y,47.5650881,-122.2820629
MLS Listing,,Single Family Residential,7321 42nd Ave NE,Seattle,WA,98115,890000,4,1.75,View Ridge,2520,5980,1955,1,353,,Active,,,http://www.redfin.com/WA/Seattle/7321-42nd-Ave-NE-98115/home/317535,NWMLS,1369814,N,Y,47.6823367,-122.2839642
MLS Listing,,Condo/Co-op,7711 NE 175th St Unit F302,Kenmore,WA,98028,288000,1,1.0,Kenmore,738,,1995,1,390,325,Active,October-6-2018 01:00 PM,October-6-2018 04:00 PM,http://www.redfin.com/WA/Kenmore/7711-NE-175th-St-98028/unit-F302/home/12318519,NWMLS,1369195,N,Y,47.7554351,-122.2384227
MLS Listing,,Townhouse,15543 135th Place NE Unit 39A,Woodinville,WA,98072,620000,3,2.25,West Woodinville,1841,2664836,1998,1,337,486,Active,October-4-2018 04:00 PM,October-4-2018 06:00 PM,http://www.redfin.com/WA/Woodinville/15543-135th-Pl-NE-98072/unit-39A/home/67234,NWMLS,1369285,N,Y,47.7398281,-122.1609553
MLS Listing,,Condo/Co-op,1214 Taylor Ave N #201,Seattle,WA,98109,639950,3,1.75,Queen Anne,1161,,1966,1,551,407,Active,October-7-2018 02:00 PM,October-7-2018 04:00 PM,http://www.redfin.com/WA/Seattle/1214-Taylor-Ave-N-98109/unit-201/home/67415,NWMLS,1370183,N,Y,47.630256,-122.345861
MLS Listing,,Single Family Residential,11205 NE 97th St,Kirkland,WA,98033,810000,3,1.0,Highlands,940,7200,1964,1,862,,Active,,,http://www.redfin.com/WA/Kirkland/11205-NE-97th-St-98033/home/462531,NWMLS,1350146,N,Y,47.6877831,-122.1897455
MLS Listing,,Townhouse,111 17th Ave Unit B,Seattle,WA,98122,699950,2,2.0,First Hill,1380,960,2014,1,507,,Active,October-6-2018 11:30 AM,October-6-2018 02:30 PM,http://www.redfin.com/WA/Seattle/111-17th-Ave-98122/unit-B/home/63072783,NWMLS,1369361,N,Y,47.602048,-122.3104653
MLS Listing,,Condo/Co-op,13735 15th Ave NE Unit A-16,Seattle,WA,98125,364950,2,2.0,Jackson Park,1150,,1975,1,317,496,Active,October-4-2018 11:00 AM,October-4-2018 01:00 PM,http://www.redfin.com/WA/Seattle/13735-15th-Ave-NE-98125/unit-A16/home/58314,NWMLS,1370168,N,Y,47.7296145,-122.3140237
MLS Listing,,Single Family Residential,8447 35th Ave SW,Seattle,WA,98126,469000,2,1.0,West Seattle,830,6860,1942,1,565,,Active,,,http://www.redfin.com/WA/Seattle/8447-35th-Ave-SW-98126/home/468691,NWMLS,1365119,N,Y,47.5269099,-122.3770071
MLS Listing,,Single Family Residential,13038 30th Ave NE,Seattle,WA,98125,799950,3,3.25,Olympic Hills,1928,10800,1993,1,415,,Active,October-6-2018 12:00 PM,October-6-2018 03:00 PM,http://www.redfin.com/WA/Seattle/13038-30th-Ave-NE-98125/home/115339,NWMLS,1370159,N,Y,47.7241712,-122.2958609
MLS Listing,,Townhouse,2010 California Ave SW Unit B,Seattle,WA,98116,835000,3,3.25,North Admiral,1970,1731,2007,1,424,41,Active,October-4-2018 12:30 PM,October-4-2018 02:00 PM,http://www.redfin.com/WA/Seattle/2010-California-Ave-SW-98116/unit-B/home/18657231,NWMLS,1368822,N,Y,47.585738,-122.386081
MLS Listing,,Single Family Residential,7324 Earl Ave NW,Seattle,WA,98117,875000,3,1.5,Loyal Heights,2040,4080,1930,1,429,,Active,October-6-2018 01:00 PM,October-6-2018 04:00 PM,http://www.redfin.com/WA/Seattle/7324-Earl-Ave-NW-98117/home/163780,NWMLS,1368995,N,Y,47.6821083,-122.3916115
MLS Listing,,Single Family Residential,16278 SE 31st St,Bellevue,WA,98008,798000,6,3.75,Spiritridge,2220,8079,1966,1,359,,Active,October-6-2018 11:00 AM,October-6-2018 02:00 PM,http://www.redfin.com/WA/Bellevue/16278-SE-31st-St-98008/home/428940,NWMLS,1370274,N,Y,47.5825044,-122.122824
MLS Listing,,Single Family Residential,8707 1st Ave NW,Seattle,WA,98117,750000,1,1.0,Greenwood,870,6350,1910,1,862,,Active,,,http://www.redfin.com/WA/Seattle/8707-1st-Ave-NW-98117/home/101244,NWMLS,1369933,N,Y,47.6927613,-122.3582651
MLS Listing,,Single Family Residential,10640 Rustic Rd S,Seattle,WA,98178,399950,3,1.0,Seattle,1285,7339,1950,1,311,,Active,,,http://www.redfin.com/WA/Seattle/10640-Rustic-Rd-S-98178/home/197144,NWMLS,1367918,N,Y,47.5069806,-122.2453663
MLS Listing,,Condo/Co-op,3730 Lake Washington Blvd SE Unit 1C,Bellevue,WA,98006,325000,2,1.75,Newport Shores,880,,1973,1,369,500,Active,,,http://www.redfin.com/WA/Bellevue/3730-Lake-Washington-Blvd-SE-98006/unit-1C/home/39859,NWMLS,1369930,N,Y,47.575913,-122.181284
MLS Listing,,Condo/Co-op,1801 28th Ave S Unit A,Seattle,WA,98144,688000,3,2.25,Mt Baker,1720,7695,2002,1,400,300,Active,October-4-2018 11:00 AM,October-4-2018 01:00 PM,http://www.redfin.com/WA/Seattle/1801-28th-Ave-S-98144/unit-A/home/51285,NWMLS,1370233,N,Y,47.5867773,-122.2973349
MLS Listing,,Single Family Residential,3744 SW Monroe St,Seattle,WA,98126,589000,3,1.0,West Seattle,1520,4494,1940,1,388,,Active,,,http://www.redfin.com/WA/Seattle/3744-SW-Monroe-St-98126/home/469102,NWMLS,1370150,N,Y,47.5315123,-122.3812188
MLS Listing,,Condo/Co-op,2960 SW Raymond St #101,Seattle,WA,98126,399999,2,2.0,High Point,1171,173136,2007,1,342,450,Active,October-6-2018 10:00 AM,October-6-2018 01:00 PM,http://www.redfin.com/WA/Seattle/2960-SW-Raymond-St-98126/unit-101/home/17080335,NWMLS,1369049,N,Y,47.548645,-122.3694526
MLS Listing,,Single Family Residential,423 N 120th St,Seattle,WA,98133,650000,3,1.75,Broadview,2360,6040,1947,1,275,,Active,October-6-2018 01:00 PM,October-6-2018 04:00 PM,http://www.redfin.com/WA/Seattle/423-N-120th-St-98133/home/97940,NWMLS,1369567,N,Y,47.7157626,-122.3531705
MLS Listing,,Single Family Residential,2613 NW 63rd St,Seattle,WA,98107,895000,3,2.0,Ballard,1500,4450,1903,1,597,,Active,October-6-2018 12:00 AM,October-6-2018 03:00 PM,http://www.redfin.com/WA/Seattle/2613-NW-63rd-St-98107/home/162780,NWMLS,1369718,N,Y,47.6743369,-122.3907234
MLS Listing,,Condo/Co-op,4204 11th Ave NE #4,Seattle,WA,98105,378950,0,1.0,University District,634,12360,1930,1,598,362,Active,,,http://www.redfin.com/WA/Seattle/4204-11th-Ave-NE-98105/unit-4/home/147385285,NWMLS,1369907,N,Y,47.658619,-122.3163686
MLS Listing,,Condo/Co-op,9830 NE 122nd St Unit S203,Kirkland,WA,98034,358000,2,1.0,Juanita,1008,,1986,1,355,349,Active,October-6-2018 01:00 PM,October-6-2018 03:00 PM,http://www.redfin.com/WA/Kirkland/9830-NE-122nd-St-98034/unit-S203/home/17083108,NWMLS,1369054,N,Y,47.7101096,-122.2091863
MLS Listing,,Single Family Residential,406 N 107th St,Seattle,WA,98133,719000,2,1.75,Broadview,1560,7270,1941,1,461,,Active,October-6-2018 01:00 PM,October-6-2018 04:00 PM,http://www.redfin.com/WA/Seattle/406-N-107th-St-98133/home/99892,NWMLS,1369043,N,Y,47.7070771,-122.3538102
MLS Listing,,Condo/Co-op,1216 1st Ave W #304,Seattle,WA,98119,899206,2,1.75,Queen Anne,1083,7493,1916,1,830,701,Active,October-7-2018 01:00 PM,October-7-2018 04:00 PM,http://www.redfin.com/WA/Seattle/1216-1st-Ave-W-98119/unit-304/home/2090415,NWMLS,1366617,N,Y,47.6301876,-122.3576516
MLS Listing,,Condo/Co-op,4847 California Ave SW #306,Seattle,WA,98116,489000,1,1.0,Alaska Junction,900,,2003,1,543,351,Active,October-6-2018 12:00 PM,October-6-2018 02:00 PM,http://www.redfin.com/WA/Seattle/4847-California-Ave-SW-98116/unit-306/home/57293,NWMLS,1368258,N,Y,47.5576301,-122.3871918
MLS Listing,,Condo/Co-op,750 11th Ave E #502,Seattle,WA,98102,589950,0,1.0,North Capitol Hill,484,,2018,1,1219,348,Active,,,http://www.redfin.com/WA/Seattle/750-11th-Ave-E-98102/unit-502/home/147384939,NWMLS,1368620,N,Y,47.6267674,-122.3180229
MLS Listing,,Condo/Co-op,750 11th Ave E #203,Seattle,WA,98102,469950,1,1.0,North Capitol Hill,537,,2018,1,875,386,Active,,,http://www.redfin.com/WA/Seattle/750-11th-Ave-E-98102/unit-203/home/147384938,NWMLS,1369498,N,Y,47.6267674,-122.3180229
MLS Listing,,Single Family Residential,13003 SE 151st St,Renton,WA,98058,447000,3,1.0,Maplewood,970,9583,1947,1,461,,Active,October-6-2018 12:00 PM,October-6-2018 03:00 PM,http://www.redfin.com/WA/Renton/13003-SE-151st-St-98058/home/422563,NWMLS,1369628,N,Y,47.4688443,-122.1672747
MLS Listing,,Single Family Residential,4024 Renton Ave S,Seattle,WA,98108,599950,3,1.75,Columbia City,1520,5940,1955,1,395,,Active,October-7-2018 11:00 AM,October-7-2018 01:00 PM,http://www.redfin.com/WA/Seattle/4024-Renton-Ave-S-98108/home/172542,NWMLS,1368555,N,Y,47.5673302,-122.2934181
MLS Listing,,Single Family Residential,10843 11th Ave SW,Seattle,WA,98146,550000,3,1.75,White Center,1760,7623,1928,1,313,,Active,October-6-2018 01:00 PM,October-6-2018 04:00 PM,http://www.redfin.com/WA/Seattle/10843-11th-Ave-SW-98146/home/181492,NWMLS,1363689,N,Y,47.5052044,-122.3488539
MLS Listing,,Single Family Residential,16010 36th Ave NE,Lake Forest Park,WA,98155,829900,4,3.5,Sheridan,3100,11532,1990,1,268,,Active,October-6-2018 11:00 AM,October-6-2018 01:00 PM,http://www.redfin.com/WA/Lake-Forest-Park/16010-36th-Ave-NE-98155/home/89560,NWMLS,1369254,N,Y,47.7449912,-122.2898208
MLS Listing,,Single Family Residential,6532 20th Ave NE,Seattle,WA,98115,748800,5,2.75,Ravenna,2780,5600,1924,1,269,,Active,October-6-2018 12:00 PM,October-6-2018 03:00 PM,http://www.redfin.com/WA/Seattle/6532-20th-Ave-NE-98115/home/309794,NWMLS,1367646,N,Y,47.6768645,-122.3062592
MLS Listing,,Condo/Co-op,668 S Lane St #605,Seattle,WA,98104,569500,2,2.0,International District,998,14401,2002,1,571,554,Active,October-7-2018 12:00 PM,October-7-2018 02:00 PM,http://www.redfin.com/WA/Seattle/668-S-Lane-St-98104/unit-605/home/8188834,NWMLS,1369570,N,Y,47.5969277,-122.324136
MLS Listing,,Single Family Residential,13008 12th Ave S,Burien,WA,98168,379950,4,1.0,Burien,1380,6600,1950,1,275,,Active,,,http://www.redfin.com/WA/Burien/13008-12th-Ave-S-98168/home/189671,NWMLS,1370203,N,Y,47.4864255,-122.3177808
MLS Listing,,Single Family Residential,16219 197th Ave NE,Woodinville,WA,98077,625000,3,2.25,Cottage Lake,2230,10360,1978,1,280,,Active,October-5-2018 05:00 PM,October-5-2018 07:00 PM,http://www.redfin.com/WA/Woodinville/16219-197th-Ave-NE-98077/home/270143,NWMLS,1368891,N,Y,47.7461676,-122.0755163
MLS Listing,,Single Family Residential,2099 Spring St E,Port Orchard,WA,98366,544500,4,2.0,Manchester,3045,10454,1975,1,179,,Active,,,http://www.redfin.com/WA/Port-Orchard/2099-E-Spring-St-98366/home/2399507,NWMLS,1370143,N,Y,47.553242,-122.5457263
MLS Listing,,Condo/Co-op,5844 NE 75th Street Unit A311,Seattle,WA,98115,399999,2,1.75,Sand Point,855,114531,1977,1,468,359,Active,,,http://www.redfin.com/WA/Seattle/5844-NE-75th-St-98115/unit-A311/home/13074,NWMLS,1368273,N,Y,47.6834619,-122.2645783
MLS Listing,,Single Family Residential,9706 50th Ave SW,Seattle,WA,98136,795000,3,1.25,Fauntleroy,2100,11652,1966,1,379,,Active,October-6-2018 12:00 PM,October-6-2018 03:00 PM,http://www.redfin.com/WA/Seattle/9706-50th-Ave-SW-98136/home/157888,NWMLS,1369909,N,Y,47.5165953,-122.3957182
MLS Listing,,Single Family Residential,12250 56th Place S,Seattle,WA,98178,530000,3,1.75,Allentown,1780,7800,1957,1,298,,Active,,,http://www.redfin.com/WA/Seattle/12250-56th-Pl-S-98178/home/195370,NWMLS,1368888,N,Y,47.4931648,-122.2633769
MLS Listing,,Single Family Residential,3238 NE 89th Street,Seattle,WA,98115,995000,6,2.75,Wedgwood,3360,8250,1946,1,296,,Active,October-5-2018 05:00 PM,October-5-2018 06:30 PM,http://www.redfin.com/WA/Seattle/3238-NE-89th-St-98115/home/316704,NWMLS,1365804,N,Y,47.6933002,-122.29159
MLS Listing,,Single Family Residential,10315 23rd Ave NE,Seattle,WA,98125,829000,3,1.75,Victory Heights,1620,6496,1941,1,512,,Active,October-6-2018 02:00 PM,October-6-2018 04:00 PM,http://www.redfin.com/WA/Seattle/10315-23rd-Ave-NE-98125/home/107626,NWMLS,1369648,N,Y,47.7034656,-122.3045546
MLS Listing,,Single Family Residential,9209 NE 142nd Wy,Kirkland,WA,98034,775000,4,2.25,Finn Hill,3888,7778,1979,1,199,,Active,October-5-2018 04:00 PM,October-5-2018 07:00 PM,http://www.redfin.com/WA/Kirkland/9209-NE-142nd-Way-98034/home/277078,NWMLS,1369249,N,Y,47.729283,-122.218404
MLS Listing,,Single Family Residential,19900 SE 125th St,Issaquah,WA,98027,598500,3,2.5,High Valley,2840,50094,1961,1,211,25,Active,,,http://www.redfin.com/WA/Issaquah/19900-SE-125th-St-98027/home/420084,NWMLS,1365631,N,Y,47.4911314,-122.0759689
MLS Listing,,Single Family Residential,16343 84th Ave NE,Kenmore,WA,98028,647500,3,2.75,Moorlands,2080,9924,1968,1,311,,Active,October-6-2018 01:00 PM,October-6-2018 04:00 PM,http://www.redfin.com/WA/Kenmore/16343-84th-Ave-NE-98028/home/284945,NWMLS,1369984,N,Y,47.7464983,-122.2290308
MLS Listing,,Condo/Co-op,12721 NE 129th Ct Unit F103,Kirkland,WA,98034,319000,2,1.75,Kirkland,1066,320860,1980,1,299,399,Active,,,http://www.redfin.com/WA/Kirkland/12721-NE-129th-Ct-98034/unit-F103/home/26148,NWMLS,1369166,N,Y,47.71592,-122.1705004
MLS Listing,,Single Family Residential,301 NW 78th St,Seattle,WA,98117,875000,3,2.5,Greenwood,2060,3053,1929,1,425,,Active,,,http://www.redfin.com/WA/Seattle/301-NW-78th-St-98117/home/497879,NWMLS,1369411,N,Y,47.6852916,-122.3608729
MLS Listing,,Single Family Residential,4214 S Spencer St,Seattle,WA,98118,639995,6,3.25,Hillman City,3130,4725,1926,1,204,,Active,,,http://www.redfin.com/WA/Seattle/4214-S-Spencer-St-98118/home/173385,NWMLS,1370156,N,Y,47.5476252,-122.2801254
MLS Listing,,Single Family Residential,6807 42nd Ave S,Seattle,WA,98118,699000,4,3.0,Hillman City,2130,5000,2006,1,328,,Active,,,http://www.redfin.com/WA/Seattle/6807-42nd-Ave-S-98118/home/8189139,NWMLS,1370153,N,Y,47.5412773,-122.2815214
MLS Listing,,Single Family Residential,3044 S Austin St,Seattle,WA,98108,605000,5,2.5,Beacon Hill,2145,6820,1985,1,282,,Active,,,http://www.redfin.com/WA/Seattle/3044-S-Austin-St-98108/home/481956,NWMLS,1368081,N,Y,47.5346012,-122.2914651
MLS Listing,,Single Family Residential,7720 Meridian Ave N,Seattle,WA,98103,895000,3,1.75,Green Lake,1876,5280,1924,1,477,,Active,October-4-2018 05:00 PM,October-4-2018 07:00 PM,http://www.redfin.com/WA/Seattle/7720-Meridian-Ave-N-98103/home/306843,NWMLS,1369935,N,Y,47.6857332,-122.332679
MLS Listing,,Single Family Residential,8816 133rd Ave NE,Redmond,WA,98052,749000,2,2.5,Rose Hill,1640,2580,1986,1,457,194,Active,,,http://www.redfin.com/WA/Redmond/8816-133rd-Ave-NE-98052/home/511484,NWMLS,1368815,N,Y,47.681332,-122.1620549
MLS Listing,,Single Family Residential,1628 N 167th St,Shoreline,WA,98133,875000,2,1.0,Shoreline,1450,19255,1938,1,603,,Active,,,http://www.redfin.com/WA/Shoreline/1628-N-167th-St-98133/home/83775,NWMLS,1369867,N,Y,47.7506874,-122.338839
MLS Listing,,Single Family Residential,10048 11th Ave SW,Seattle,WA,98146,588000,4,2.5,White Center,2420,11430,1940,1,243,,Active,October-4-2018 11:00 AM,October-4-2018 01:00 PM,http://www.redfin.com/WA/Seattle/10048-11th-Ave-SW-98146/home/183083,NWMLS,1356176,N,Y,47.51234,-122.3485501
MLS Listing,,Single Family Residential,5520 S Leo St,Seattle,WA,98178,549000,3,2.25,Upper Rainier Beach,1680,10175,1940,1,327,,Active,October-7-2018 01:00 PM,October-7-2018 04:00 PM,http://www.redfin.com/WA/Seattle/5520-S-Leo-St-98178/home/178614,NWMLS,1347387,N,Y,47.5027626,-122.2639475
MLS Listing,,Single Family Residential,8625 Ravenna Ave NE,Seattle,WA,98115,739000,3,2.5,Ravenna,1850,5369,1920,1,399,,Active,October-6-2018 12:00 PM,October-6-2018 04:00 PM,http://www.redfin.com/WA/Seattle/8625-Ravenna-Ave-NE-98115/home/310522,NWMLS,1364688,N,Y,47.691889,-122.3029211
MLS Listing,,Townhouse,4228 213th Place SE #26,Issaquah,WA,98029,700000,3,2.25,East Lake Sammamish,1832,379065,2013,1,382,324,Active,October-6-2018 02:00 PM,October-6-2018 05:00 PM,http://www.redfin.com/WA/Issaquah/4228-213th-Pl-SE-98029/unit-26/home/45104971,NWMLS,1370084,N,Y,47.5692206,-122.0564567
MLS Listing,,Single Family Residential,4324 West Mercer Way,Mercer Island,WA,98040,995000,3,1.75,West Mercer,1500,29200,1954,1,663,,Active,,,http://www.redfin.com/WA/Mercer-Island/4324-W-Mercer-Way-98040/home/259802,NWMLS,1368982,N,Y,47.5686189,-122.2285913
MLS Listing,,Single Family Residential,614 Shelton Ave NE,Renton,WA,98056,289000,3,1.0,Highlands,700,7650,1953,1,413,,Active,,,http://www.redfin.com/WA/Renton/614-Shelton-Ave-NE-98056/home/243148,NWMLS,1367990,N,Y,47.4927528,-122.1665175
MLS Listing,,Condo/Co-op,219 SW 110th St #3,Seattle,WA,98146,469900,4,2.5,Seattle,2219,3060,2005,1,212,290,Active,,,http://www.redfin.com/WA/Seattle/219-SW-110th-St-98146/unit-3/home/2089913,NWMLS,1367058,N,Y,47.5047676,-122.3365856
MLS Listing,,Condo/Co-op,750 N 143rd St Unit B5,Seattle,WA,98133,230000,1,1.0,Seattle,701,60274,1978,1,328,215,Active,,,http://www.redfin.com/WA/Seattle/750-N-143rd-St-98133/unit-B5/home/12304607,NWMLS,1368421,N,Y,47.7328312,-122.3485419
MLS Listing,,Condo/Co-op,2911 2nd Ave #1011,Seattle,WA,98121,569000,1,1.0,Belltown,603,25440,2009,1,944,466,Active,October-7-2018 01:00 PM,October-7-2018 03:00 PM,http://www.redfin.com/WA/Seattle/2911-2nd-Ave-98121/unit-1011/home/21616564,NWMLS,1369581,N,Y,47.6176091,-122.3523038
MLS Listing,,Condo/Co-op,320 Melrose Ave E #505,Seattle,WA,98102,600000,2,1.75,Capitol Hill,965,,1966,1,622,476,Active,October-6-2018 11:00 AM,October-6-2018 02:00 PM,http://www.redfin.com/WA/Seattle/320-Melrose-Ave-E-98102/unit-505/home/26598,NWMLS,1369721,N,Y,47.621332,-122.3275907
MLS Listing,,Townhouse,201 5th Place S #201,Kirkland,WA,98033,999000,3,1.75,Downtown,1323,28885,1996,1,755,435,Active,,,http://www.redfin.com/WA/Kirkland/201-5th-Pl-S-98033/unit-201/home/17078699,NWMLS,1369108,N,Y,47.67406,-122.197604
MLS Listing,,Townhouse,3110 NW 85th St Unit B,Seattle,WA,98117,649950,2,2.0,North Beach,1280,979,2002,1,508,,Active,October-6-2018 01:00 PM,October-6-2018 04:00 PM,http://www.redfin.com/WA/Seattle/3110-NW-85th-St-98117/unit-B/home/163604,NWMLS,1369972,N,Y,47.6907872,-122.3975413
MLS Listing,,Townhouse,17112 128th Lane NE,Woodinville,WA,98072,377000,2,2.5,Woodinville,1100,1,1985,1,343,261,Active,,,http://www.redfin.com/WA/Woodinville/17112-128th-Ln-NE-98072/home/2402,NWMLS,1369964,N,Y,47.7518438,-122.169962
MLS Listing,,Townhouse,2529 175th Ave NE,Redmond,WA,98052,619888,3,2.25,Microsoft,1800,2355,1976,1,344,372,Active,October-7-2018 01:00 PM,October-7-2018 04:00 PM,http://www.redfin.com/WA/Redmond/2529-175th-Ave-NE-98052/home/505568,NWMLS,1369539,N,Y,47.633324,-122.10656
MLS Listing,,Single Family Residential,12205 Greenwood Ave N,Seattle,WA,98133,650000,3,1.75,Broadview,2250,6460,1950,1,289,,Active,October-6-2018 01:00 PM,October-6-2018 04:00 PM,http://www.redfin.com/WA/Seattle/12205-Greenwood-Ave-N-98133/home/96534,NWMLS,1369824,N,Y,47.7181462,-122.355851
MLS Listing,,Townhouse,4352 6th Ave NW,Seattle,WA,98107,663920,1,1.25,Fremont,1088,1321,2018,1,610,92,Active,October-6-2018 02:30 PM,October-6-2018 04:30 PM,http://www.redfin.com/WA/Seattle/4352-6th-Ave-NW-98107/home/144466635,NWMLS,1369882,N,Y,47.6603027,-122.3636811
MLS Listing,,Single Family Residential,15842 8th Ave NE,Shoreline,WA,98155,550000,3,1.0,Ridgecrest,1050,7225,1947,1,524,,Active,October-6-2018 01:00 PM,October-6-2018 03:00 PM,http://www.redfin.com/WA/Shoreline/15842-8th-Ave-NE-98155/home/87016,NWMLS,1369714,N,Y,47.7447458,-122.3207379
MLS Listing,,Multi-Family (2-4 Unit),10469 Rainier Ave S,Seattle,WA,98178,689950,5,3.0,Lakeridge,2420,8550,1968,1,285,,Active,,,http://www.redfin.com/WA/Seattle/10469-Rainier-Ave-S-98178/home/199503,NWMLS,1369918,N,Y,47.5082278,-122.2352805
MLS Listing,,Single Family Residential,807 NW 52nd St,Seattle,WA,98107,939900,4,2.25,Ballard,1755,1600,2018,1,536,,Active,October-4-2018 04:00 PM,October-4-2018 06:00 PM,http://www.redfin.com/WA/Seattle/807-NW-52nd-St-98107/home/147378786,NWMLS,1362400,N,Y,47.6662162,-122.3665502
MLS Listing,,Single Family Residential,16536 SE Newport Wy,Bellevue,WA,98006,700000,5,2.75,Eastgate,2690,30736,1911,1,260,,Active,,,http://www.redfin.com/WA/Bellevue/16536-SE-Newport-Way-98006/home/239369,NWMLS,1369716,N,Y,47.5718317,-122.1185482
MLS Listing,,Single Family Residential,1022 SW Henderson St,Seattle,WA,98106,400000,0,,Highland Park,2116,4800,1922,1,189,,Active,,,http://www.redfin.com/WA/Seattle/1022-SW-Henderson-St-98106/home/147378382,NWMLS,1369819,N,Y,47.5230198,-122.3491067
MLS Listing,,Single Family Residential,11906 11th Place SW,Burien,WA,98146,397999,3,1.75,Burien,1000,4053,1954,1,398,,Active,October-4-2018 12:00 PM,October-4-2018 02:00 PM,http://www.redfin.com/WA/Seattle/11906-11th-Pl-SW-98146/home/183441,NWMLS,1367336,N,Y,47.4962662,-122.3483067
MLS Listing,,Single Family Residential,1408 Bulman Rd SE,Port Orchard,WA,98366,379900,3,2.5,Port Orchard,1780,38768,2018,1,213,,Active,,,http://www.redfin.com/WA/Port-Orchard/1408-Bulman-Rd-SE-98366/home/147378285,NWMLS,1369790,N,Y,47.5357878,-122.5764718
MLS Listing,,Townhouse,1560 NW 62nd St,Seattle,WA,98107,735000,2,1.25,Ballard,1010,881,2017,1,728,,Active,October-7-2018 02:00 PM,October-7-2018 04:00 PM,http://www.redfin.com/WA/Seattle/1560-NW-62nd-St-98107/home/113995467,NWMLS,1369749,N,Y,47.673986,-122.378717
MLS Listing,,Condo/Co-op,530 Broadway E #614,Seattle,WA,98102,488000,1,1.0,Capitol Hill,523,39466,2007,1,933,302,Active,October-5-2018 05:00 PM,October-5-2018 07:00 PM,http://www.redfin.com/WA/Seattle/530-Broadway-E-98102/unit-614/home/21617360,NWMLS,1369508,N,Y,47.6237244,-122.3206618
MLS Listing,,Condo/Co-op,375 Kirkland Ave #346,Kirkland,WA,98033,649995,1,1.0,Downtown,908,72000,2007,1,716,427,Active,October-6-2018 01:00 PM,October-6-2018 04:00 PM,http://www.redfin.com/WA/Kirkland/375-Kirkland-Ave-98033/unit-346/home/12092787,NWMLS,1369398,N,Y,47.6751132,-122.2009655
MLS Listing,,Single Family Residential,13739 Wayne Place N,Seattle,WA,98133,980000,3,2.5,Haller Lake,2294,4457,2014,1,427,,Active,October-6-2018 02:00 PM,October-6-2018 04:00 PM,http://www.redfin.com/WA/Seattle/13739-Wayne-Pl-N-98133/home/45464394,NWMLS,1368666,N,Y,47.7292626,-122.3347417
MLS Listing,,Other,1080 W Ewing St Unit A6,Seattle,WA,98119,375000,2,1.0,South Lake Union,510,1,1985,1,735,,Active,October-6-2018 01:00 PM,October-6-2018 04:00 PM,http://www.redfin.com/WA/Seattle/1080-W-Ewing-St-98119/unit-A6/home/147376909,NWMLS,1369381,N,Y,47.6563074,-122.3697827
MLS Listing,,Single Family Residential,12620 NE 156th Place,Woodinville,WA,98072,588000,4,2.0,Sw Woodinville,1540,7709,1969,1,382,,Active,October-6-2018 02:00 PM,October-6-2018 04:00 PM,http://www.redfin.com/WA/Woodinville/12620-156th-Pl-NE-98072/home/455749,NWMLS,1368641,N,Y,47.741408,-122.1713903
MLS Listing,,Single Family Residential,17213 NE 32nd St,Redmond,WA,98052,849500,3,2.5,Microsoft,1880,8851,1984,1,452,,Active,,,http://www.redfin.com/WA/Redmond/17213-NE-32nd-St-98052/home/503062,NWMLS,1369603,N,Y,47.6381844,-122.1100198
MLS Listing,,Single Family Residential,16037 SE 116th St,Renton,WA,98059,450000,4,1.0,May Valley,1430,208216,1918,1,315,,Active,,,http://www.redfin.com/WA/Renton/16037-SE-116th-St-98059/home/244965,NWMLS,1369219,N,Y,47.4982885,-122.1253931
MLS Listing,,Townhouse,11401 115th Lane NE,Kirkland,WA,98033,599000,2,2.5,Kirkland,1670,2220,1987,1,359,,Active,October-6-2018 12:00 PM,October-6-2018 02:00 PM,http://www.redfin.com/WA/Kirkland/11401-115th-Ln-NE-98033/home/461000,NWMLS,1369303,N,Y,47.7023967,-122.187391
MLS Listing,,Single Family Residential,14709 28th Ave NE,Shoreline,WA,98155,649000,5,2.5,Shoreline,2500,12152,1965,1,260,,Active,,,http://www.redfin.com/WA/Shoreline/14709-28th-Ave-NE-98155/home/86935,NWMLS,1368134,N,Y,47.7358671,-122.2982293
MLS Listing,,Townhouse,4322 Francis Ave N Unit B,Seattle,WA,98103,909990,3,2.5,Fremont,1750,1821,2006,1,520,,Active,,,http://www.redfin.com/WA/Seattle/4322-Francis-Ave-N-98103/unit-B/home/302378,NWMLS,1369548,N,Y,47.6596255,-122.3530517
MLS Listing,,Condo/Co-op,530 4th Ave W #503,Seattle,WA,98119,598000,1,1.0,Queen Anne,876,18496,2003,1,683,300,Active,,,http://www.redfin.com/WA/Seattle/530-4th-Ave-W-98119/unit-503/home/50010,NWMLS,1369134,N,Y,47.6243348,-122.3615298
MLS Listing,,Condo/Co-op,530 4th Ave W #206,Seattle,WA,98119,500000,1,1.0,Queen Anne,745,18496,2003,1,671,251,Active,October-5-2018 05:00 PM,October-5-2018 07:00 PM,http://www.redfin.com/WA/Seattle/530-4th-Ave-W-98119/unit-206/home/53566,NWMLS,1366461,N,Y,47.6243348,-122.3615298
MLS Listing,,Condo/Co-op,6960 California Ave SW Unit A-108,Seattle,WA,98136,360000,2,1.0,Gatewood,895,,1989,1,402,436,Active,,,http://www.redfin.com/WA/Seattle/6960-California-Ave-SW-98136/unit-A108/home/12299581,NWMLS,1369601,N,Y,47.5412007,-122.3867961
MLS Listing,,Single Family Residential,11054 2nd Ave S,Seattle,WA,98168,390000,2,1.0,Seattle,910,7500,1948,1,429,,Active,October-6-2018 11:00 AM,October-6-2018 02:00 PM,http://www.redfin.com/WA/Seattle/11054-2nd-Ave-S-98168/home/189954,NWMLS,1369499,N,Y,47.5034693,-122.3307831
MLS Listing,,Single Family Residential,8610 20th Ave SW,Seattle,WA,98106,599950,3,1.0,West Seattle,2380,10240,1919,1,252,,Active,October-6-2018 01:00 PM,October-6-2018 04:00 PM,http://www.redfin.com/WA/Seattle/8610-20th-Ave-SW-98106/home/475981,NWMLS,1367386,N,Y,47.5260985,-122.3587222
MLS Listing,,Single Family Residential,1053 S Donovan St,Seattle,WA,98108,595000,4,1.75,South Park,1360,6000,1960,1,438,,Active,October-6-2018 01:00 PM,October-6-2018 03:00 PM,http://www.redfin.com/WA/Seattle/1053-S-Donovan-St-98108/home/477692,NWMLS,1368673,N,Y,47.5254187,-122.3180453
MLS Listing,,Single Family Residential,10239 26th Ave SW,Seattle,WA,98146,649950,3,1.5,White Center,1920,18147,1942,1,339,,Active,,,http://www.redfin.com/WA/Seattle/10239-26th-Ave-SW-98146/home/180675,NWMLS,1369535,N,Y,47.5110873,-122.3661973
MLS Listing,,Single Family Residential,11403 14th Ave S,Seattle,WA,98168,295000,1,1.0,Boulevard Park,540,19200,1936,1,546,,Active,October-6-2018 11:00 AM,October-6-2018 02:00 PM,http://www.redfin.com/WA/Seattle/11403-14th-Ave-S-98168/home/186800,NWMLS,1367438,N,Y,47.501097,-122.315963
MLS Listing,,Single Family Residential,924 27th Ave,Seattle,WA,98122,750000,4,2.0,Central Area,1950,6000,1977,1,385,,Active,,,http://www.redfin.com/WA/Seattle/924-27th-Ave-98122/home/147304,NWMLS,1369607,N,Y,47.6107721,-122.2971645
MLS Listing,,Single Family Residential,2109 165th Place NE,Bellevue,WA,98008,800000,4,2.75,Bellevue,2790,7826,1966,1,287,,Active,October-4-2018 11:00 AM,October-4-2018 02:00 PM,http://www.redfin.com/WA/Bellevue/2109-165th-Pl-NE-98008/home/432277,NWMLS,1368022,N,Y,47.6289802,-122.1197679
MLS Listing,,Single Family Residential,954 Baby Doll Rd SE,Port Orchard,WA,98366,225000,2,1.0,Port Orchard,1556,6534,1942,2,145,,Active,,,http://www.redfin.com/WA/Port-Orchard/954-Baby-Doll-Rd-SE-98366/home/2280621,NWMLS,1369377,N,Y,47.5396708,-122.5892644
MLS Listing,,Townhouse,3612 35th Ave S,Seattle,WA,98144,489750,2,2.25,Seattle,1070,1136,2007,2,458,,Active,October-7-2018 11:00 AM,October-7-2018 01:30 PM,http://www.redfin.com/WA/Seattle/3612-35th-Ave-S-98144/home/171611,NWMLS,1369155,N,Y,47.5711265,-122.2886836
MLS Listing,,Condo/Co-op,415 W Mercer St #201,Seattle,WA,98119,535000,2,1.75,Queen Anne,1262,18731,1963,2,424,490,Active,October-6-2018 12:00 PM,October-6-2018 02:00 PM,http://www.redfin.com/WA/Seattle/415-W-Mercer-St-98119/unit-201/home/3952,NWMLS,1368737,N,Y,47.6243559,-122.3630754
MLS Listing,,Vacant Land,70 xD Lakemont Blvd SE Lot D,Bellevue,WA,98006,448888,0,,Lakemont,,47480,,2,,,Active,,,http://www.redfin.com/WA/Bellevue/70-xD-Lakemont-Blvd-SE-98006/unit-D/home/145866875,NWMLS,1369566,N,Y,47.559155,-122.113353
MLS Listing,,Vacant Land,70 xC Lakemont Blvd SE Lot C,Bellevue,WA,98006,498888,0,,Lakemont,,59241,,2,,,Active,,,http://www.redfin.com/WA/Bellevue/70-xC-Lakemont-Blvd-SE-98006/unit-C/home/145866725,NWMLS,1369563,N,Y,47.559155,-122.113353
MLS Listing,,Vacant Land,70 xB Lakemont Blvd SE Lot B,Bellevue,WA,98006,648888,0,,Lakemont,,121968,,2,,,Active,,,http://www.redfin.com/WA/Bellevue/70-xB-Lakemont-Blvd-SE-98006/unit-B/home/145866780,NWMLS,1369561,N,Y,47.559155,-122.113353
MLS Listing,,Single Family Residential,4501 150th Place SE,Bellevue,WA,98006,649000,4,1.75,Bellevue,1390,11953,1955,2,467,,Active,,,http://www.redfin.com/WA/Bellevue/4501-150th-Pl-SE-98006/home/235933,NWMLS,1368644,N,Y,47.5660542,-122.1386794
MLS Listing,,Single Family Residential,2716 SW Holden (lot 14) St,Seattle,WA,98126,739950,3,2.5,West Seattle,1983,3299,2018,2,373,,Active,October-6-2018 10:00 AM,October-6-2018 02:00 PM,http://www.redfin.com/WA/Seattle/2716-SW-Holden-St-98126/unit-14/home/146172168,NWMLS,1369486,N,Y,47.5339656,-122.3681477
MLS Listing,,Vacant Land,834 NE 79th St Lot 20,Seattle,WA,98115,399950,0,,Maple Leaf,,2910,,2,,,Active,,,http://www.redfin.com/WA/Seattle/834-NE-79th-St-98115/unit-20/home/147370573,NWMLS,1368899,N,Y,47.6862423,-122.3187123
MLS Listing,,Single Family Residential,834 NE 79th St,Seattle,WA,98115,649950,4,1.0,Maple Leaf,2630,2910,1909,2,247,,Active,,,http://www.redfin.com/WA/Seattle/834-NE-79th-St-98115/home/108229,NWMLS,1368266,N,Y,47.6862423,-122.3187123
MLS Listing,,Condo/Co-op,11642 100th Ave NE #106,Kirkland,WA,98034,419900,2,1.75,Juanita,1135,110149,1978,2,370,452,Active,October-7-2018 01:00 PM,October-7-2018 04:00 PM,http://www.redfin.com/WA/Kirkland/11642-100th-Ave-NE-98034/unit-106/home/45803,NWMLS,1369528,N,Y,47.7047123,-122.2077362
MLS Listing,,Single Family Residential,3722 SW Admiral Wy,Seattle,WA,98126,799950,2,1.5,North Admiral,2590,4836,1924,2,309,,Active,October-7-2018 01:00 PM,October-7-2018 04:00 PM,http://www.redfin.com/WA/Seattle/3722-SW-Admiral-Way-98126/home/150616,NWMLS,1367016,N,Y,47.5813579,-122.378521
MLS Listing,,Single Family Residential,1910 N 39th St,Seattle,WA,98103,748880,2,1.0,Wallingford,1910,2800,1920,2,392,,Active,October-6-2018 01:00 PM,October-6-2018 04:00 PM,http://www.redfin.com/WA/Seattle/1910-N-39th-St-98103/home/119191,NWMLS,1368571,N,Y,47.654495,-122.3345251
MLS Listing,,Condo/Co-op,737 Olive Wy #3009,Seattle,WA,98101,788880,1,1.0,Downtown,700,29160,2009,2,1127,475,Active,October-6-2018 11:00 AM,October-6-2018 03:00 PM,http://www.redfin.com/WA/Seattle/737-Olive-Way-98101/unit-3009/home/21882239,NWMLS,1367355,N,Y,47.6137008,-122.3342792
MLS Listing,,Single Family Residential,15456 Cedar Grove Rd NE,Poulsbo,WA,98370,425000,2,1.75,Sandy Hook,1804,57064,1988,2,236,,Active,October-6-2018 11:00 AM,October-6-2018 01:00 PM,http://www.redfin.com/WA/Poulsbo/15456-Cedar-Grove-Rd-NE-98370/home/2379156,NWMLS,1367958,N,Y,47.702637,-122.5865892
MLS Listing,,Vacant Land,4706 B S Graham St,Seattle,WA,98118,125000,0,,Seward Park,,6669,,2,,,Active,,,http://www.redfin.com/WA/Seattle/4706-B-S-Graham-St-98118/home/146400639,NWMLS,1367385,N,Y,47.54526,-122.273058
MLS Listing,,Condo/Co-op,820 Blanchard Street #1509,Seattle,WA,98121,710000,1,1.5,Denny Triangle,980,,2009,2,724,737,Active,,,http://www.redfin.com/WA/Seattle/820-Blanchard-St-98121/unit-1509/home/28624013,NWMLS,1367715,N,Y,47.6181018,-122.3392161
MLS Listing,,Single Family Residential,17733 33rd Ave NE,Lake Forest Park,WA,98155,975000,3,2.5,Brookside,1580,43545,1947,2,617,,Active,,,http://www.redfin.com/WA/Lake-Forest-Park/17733-33rd-Ave-NE-98155/home/88669,NWMLS,1361521,N,Y,47.7566732,-122.2948411
MLS Listing,,Condo/Co-op,10819 NE 37th Place #106,Bellevue,WA,98004,339990,1,1.0,Bellevue,662,497890,1975,2,514,316,Active,,,http://www.redfin.com/WA/Bellevue/10819-NE-37th-Pl-98004/unit-106/home/17083415,NWMLS,1369304,N,Y,47.6435521,-122.1948317
MLS Listing,,Single Family Residential,3651 47th Ave SW,Seattle,WA,98116,586000,3,1.5,Genesee,1700,6678,1950,2,345,,Active,,,http://www.redfin.com/WA/Seattle/3651-47th-Ave-SW-98116/home/330660,NWMLS,1369288,N,Y,47.5705932,-122.3923792
MLS Listing,,Single Family Residential,412 35th Ave S,Seattle,WA,98144,959000,4,3.5,Leschi,1920,2400,1918,2,499,,Active,,,http://www.redfin.com/WA/Seattle/412-35th-Ave-S-98144/home/141709,NWMLS,1369279,N,Y,47.5986947,-122.2875398
MLS Listing,,Single Family Residential,6722 128th Ave SE,Bellevue,WA,98006,890000,6,2.75,Newport Hills,3009,7945,1976,2,296,,Active,,,http://www.redfin.com/WA/Bellevue/6722-128th-Ave-SE-98006/home/415132,NWMLS,1369263,N,Y,47.5417908,-122.1687087
MLS Listing,,Condo/Co-op,2720 3rd Ave #909,Seattle,WA,98121,995000,2,1.75,Belltown,1269,,2008,2,784,760,Active,October-7-2018 11:00 AM,October-7-2018 01:00 PM,http://www.redfin.com/WA/Seattle/2720-3rd-Ave-98121/unit-909/home/12536942,NWMLS,1361251,N,Y,47.6176634,-122.3491947
MLS Listing,,Single Family Residential,6171 Long Lake Rd SE,Port Orchard,WA,98367,375000,3,2.5,Long Lake,1992,8276,1974,2,188,,Active,,,http://www.redfin.com/WA/Port-Orchard/6171-Long-Lake-Rd-SE-98367/home/2178984,NWMLS,1368849,N,Y,47.4909773,-122.5854251
MLS Listing,,Townhouse,3227 Beacon Ave S Unit C,Seattle,WA,98144,625000,3,2.0,N Beacon Hill,1470,705,2015,2,425,,Active,October-6-2018 12:00 PM,October-6-2018 03:00 PM,http://www.redfin.com/WA/Seattle/3227-Beacon-Ave-S-98144/unit-C/home/109003315,NWMLS,1368965,N,Y,47.5742784,-122.3092537
MLS Listing,,Townhouse,4210 S Greenbelt Station Dr,Seattle,WA,98118,538800,3,2.5,Seattle,1500,2374,2018,2,359,210,Active,,,http://www.redfin.com/WA/Seattle/4210-S-Greenbelt-Station-Dr-98118/home/109661971,NWMLS,1369028,N,Y,47.5247288,-122.2804362
MLS Listing,,Single Family Residential,12016 70th Ave S,Seattle,WA,98178,429950,4,1.0,Seattle,1740,5618,1944,2,247,,Active,,,http://www.redfin.com/WA/Seattle/12016-70th-Ave-S-98178/home/196467,NWMLS,1367479,N,Y,47.4944633,-122.2463446
MLS Listing,,Single Family Residential,3094 Marjorie Lane SE,Port Orchard,WA,98366,537500,3,2.0,Port Orchard,2150,43560,2018,2,250,,Active,October-6-2018 01:00 PM,October-6-2018 03:00 PM,http://www.redfin.com/WA/Port-Orchard/3094-Marjorie-Ln-SE-98366/home/147365259,NWMLS,1369168,N,Y,47.5193694,-122.5329748
MLS Listing,,Single Family Residential,8127 S 112th St,Seattle,WA,98178,639000,3,2.5,Lakeridge,2180,15108,1974,2,293,,Active,,,http://www.redfin.com/WA/Seattle/8127-S-112th-St-98178/home/197487,NWMLS,1369135,N,Y,47.5022264,-122.2301931
MLS Listing,,Single Family Residential,13524 North Park Ave N,Seattle,WA,98133,665000,3,1.5,Bitter Lake,2300,5775,1956,2,289,,Active,October-7-2018 01:00 PM,October-7-2018 04:00 PM,http://www.redfin.com/WA/Seattle/13524-N-Park-Ave-N-98133/home/102434,NWMLS,1369115,N,Y,47.7275502,-122.3492979
MLS Listing,,Townhouse,4160 Factoria Blvd SE Unit A105,Bellevue,WA,98006,485000,2,2.25,Factoria,1077,160467,1980,2,450,300,Active,,,http://www.redfin.com/WA/Bellevue/4160-Factoria-Blvd-SE-98006/unit-A105/home/24226,NWMLS,1369136,N,Y,47.5714189,-122.1680514
MLS Listing,,Single Family Residential,14432 SE 37TH St,Bellevue,WA,98006,749900,3,2.0,Eastgate,1900,5081,1955,2,395,,Active,October-13-2018 12:00 PM,October-13-2018 02:00 PM,http://www.redfin.com/WA/Bellevue/14432-SE-37th-St-98006/home/233887,NWMLS,1367770,N,Y,47.577852,-122.1468487
MLS Listing,,Single Family Residential,10212 41st Ave SW,Seattle,WA,98146,375000,2,1.0,Arbor Heights,860,5054,1939,2,436,,Active,,,http://www.redfin.com/WA/Seattle/10212-41st-Ave-SW-98146/home/155498,NWMLS,1369071,N,Y,47.5115876,-122.3839626
MLS Listing,,Single Family Residential,9784 NE 126TH Place,Kirkland,WA,98034,599950,3,1.0,Kirkland,940,8191,1972,2,638,,Active,October-6-2018 01:00 PM,October-6-2018 04:00 PM,http://www.redfin.com/WA/Kirkland/9784-NE-126th-Pl-98034/home/277431,NWMLS,1368988,N,Y,47.7136848,-122.2113027
MLS Listing,,Single Family Residential,3935 Interlake Ave N,Seattle,WA,98103,625000,4,1.0,Wallingford,2060,4860,1926,2,303,,Active,,,http://www.redfin.com/WA/Seattle/3935-Interlake-Ave-N-98103/home/119728,NWMLS,1367009,N,Y,47.6551978,-122.3413018
MLS Listing,,Vacant Land,414 210th Ave NE,Sammamish,WA,98074,350000,0,,Thompson Hill,,11421,,2,,,Active,,,http://www.redfin.com/WA/Sammamish/414-210th-Ave-NE-98074/home/147363780,NWMLS,1369018,N,Y,47.6132555,-122.0593932
MLS Listing,,Single Family Residential,2212 29th Ave S,Seattle,WA,98144,875000,4,1.75,Mt Baker,2480,4700,1953,2,353,,Active,October-4-2018 11:00 AM,October-4-2018 01:00 PM,http://www.redfin.com/WA/Seattle/2212-29th-Ave-S-98144/home/170874,NWMLS,1365285,N,Y,47.5832168,-122.294852
MLS Listing,,Single Family Residential,215 Newell St,Seattle,WA,98109,789000,3,2.75,Queen Anne,1980,2604,1969,2,398,,Active,,,http://www.redfin.com/WA/Seattle/215-Newell-St-98109/home/129810,NWMLS,1367522,N,Y,47.6445631,-122.3530152
MLS Listing,,Townhouse,5029 B 38 Ave SW,Seattle,WA,98126,659000,3,2.5,Fairmount,1387,1100,2018,2,475,,Active,October-6-2018 10:00 AM,October-6-2018 12:30 PM,http://www.redfin.com/WA/Seattle/5029-38th-Ave-SW-98126/unit-B/home/147248043,NWMLS,1369026,N,Y,47.5566947,-122.3803007
MLS Listing,,Single Family Residential,8712 16th Ave SW,Seattle,WA,98106,579900,3,1.75,Highland Park,1505,8560,1921,2,385,,Active,October-4-2018 12:00 PM,October-4-2018 02:00 PM,http://www.redfin.com/WA/Seattle/8712-16th-Ave-SW-98106/home/474219,NWMLS,1369019,N,Y,47.5251763,-122.354736
MLS Listing,,Condo/Co-op,3028 Western Ave #507,Seattle,WA,98121,499950,1,1.0,Belltown,775,14417,1991,2,645,570,Active,,,http://www.redfin.com/WA/Seattle/3028-Western-Ave-98121/unit-507/home/60494,NWMLS,1369022,N,Y,47.6179385,-122.3554681
MLS Listing,,Condo/Co-op,12200 100th Ave NE Building T Unit A,Kirkland,WA,98034,299000,2,1.0,Juanita,856,,1977,2,349,342,Active,,,http://www.redfin.com/WA/Kirkland/12200-100th-Ave-NE-98034/unit-A/home/147363369,NWMLS,1367517,N,Y,47.70989,-122.206412
MLS Listing,,Townhouse,1422 25th Ave Unit B,Seattle,WA,98122,885000,3,3.0,Madison Valley,1820,1539,2004,2,486,,Active,October-4-2018 11:00 AM,October-4-2018 12:30 PM,http://www.redfin.com/WA/Seattle/1422-25th-Ave-98122/unit-B/home/2066305,NWMLS,1367439,N,Y,47.6136247,-122.2998435
MLS Listing,,Single Family Residential,8711 40th Ave SW,Seattle,WA,98136,765000,4,1.75,Fauntleroy,2770,7000,1953,2,276,,Active,October-6-2018 01:00 PM,October-6-2018 04:00 PM,http://www.redfin.com/WA/Seattle/8711-40th-Ave-SW-98136/home/156496,NWMLS,1366034,N,Y,47.5248775,-122.3833067
MLS Listing,,Single Family Residential,13732 SE 141st St,Renton,WA,98059,529900,5,3.0,Maplewood Heights,2110,16821,1970,2,251,,Active,October-6-2018 12:00 PM,October-6-2018 02:00 PM,http://www.redfin.com/WA/Renton/13732-SE-141st-St-98059/home/246679,NWMLS,1368979,N,Y,47.4763999,-122.156631
MLS Listing,,Single Family Residential,5616 S Avon St,Seattle,WA,98178,485000,5,2.5,Upper Rainier Beach,2600,7200,1948,2,187,,Active,,,http://www.redfin.com/WA/Seattle/5616-S-Avon-St-98178/home/178606,NWMLS,1368092,N,Y,47.501648,-122.2614799
MLS Listing,,Single Family Residential,2107 S Kenny St,Seattle,WA,98108,699950,5,3.0,Beacon Hill,2170,5151,1998,2,323,,Active,,,http://www.redfin.com/WA/Seattle/2107-S-Kenny-St-98108/home/481239,NWMLS,1368872,N,Y,47.5492312,-122.305818
MLS Listing,,Single Family Residential,2608 NE 7th St,Renton,WA,98056,419500,4,1.0,Highlands,1700,6000,1942,3,247,,Active,,,http://www.redfin.com/WA/Renton/2608-NE-7th-St-98056/home/242994,NWMLS,1368141,N,Y,47.4944343,-122.1837518
MLS Listing,,Single Family Residential,13939 127TH PLACE NORTHEAST,Kirkland,WA,98034,720000,3,2.25,Kingsgate,1810,7840,1978,3,398,,Active,,,http://www.redfin.com/WA/Kirkland/13939-127th-Pl-NE-98034/home/455922,NWMLS,1368875,N,Y,47.72511,-122.1707369
MLS Listing,,Townhouse,1639 15th Ave,Seattle,WA,98122,999900,2,1.75,Capitol Hill,1225,1142,2018,3,816,,Active,October-4-2018 12:00 AM,October-4-2018 11:59 PM,http://www.redfin.com/WA/Seattle/1639-15th-Ave-98122/home/147353658,NWMLS,1368929,N,Y,47.6162752,-122.3130826
MLS Listing,,Other,2401 N Northlake Wy Unit E6,Seattle,WA,98103,139500,1,0.75,Lake Union,162,432,1979,3,861,,Active,,,http://www.redfin.com/WA/Seattle/2401-N-Northlake-Way-98103/unit-E6/home/147353097,NWMLS,1366533,N,Y,47.6503297,-122.3305096
MLS Listing,,Single Family Residential,4127 23rd Ave SW,Seattle,WA,98106,739000,4,2.0,Pigeon Point,1840,5000,,3,402,,Active,,,http://www.redfin.com/WA/Seattle/4127-23rd-Ave-SW-98106/home/160273,NWMLS,1368889,N,Y,47.5656988,-122.3625172
MLS Listing,,Mobile/Manufactured Home,12100 NE Philip Place,Kingston,WA,98346,285000,3,2.0,Jefferson Beach,1600,18295,2018,3,178,9,Active,October-7-2018 12:00 PM,October-7-2018 03:00 PM,http://www.redfin.com/WA/Kingston/12100-Philip-Pl-NE-98346/home/79086581,NWMLS,1367321,N,Y,47.750865,-122.4860389
MLS Listing,,Single Family Residential,6002 156th Ave NE,Redmond,WA,98052,799000,4,1.0,Microsoft,1520,16800,1940,3,526,,Active,,,http://www.redfin.com/WA/Redmond/6002-156th-Ave-NE-98052/home/504904,NWMLS,1368596,N,Y,47.660698,-122.1322559
MLS Listing,,Single Family Residential,11249 57th Ave S,Seattle,WA,98178,615000,5,2.0,Allentown,2820,10560,1953,3,218,,Active,,,http://www.redfin.com/WA/Seattle/11249-57th-Ave-S-98178/home/178338,NWMLS,1368805,N,Y,47.4988118,-122.2613038
MLS Listing,,Single Family Residential,2111 N 80th St,Seattle,WA,98103,949500,0,,Green Lake,2440,4400,1957,3,389,,Active,,,http://www.redfin.com/WA/Seattle/2111-N-80th-St-98103/home/306836,NWMLS,1364701,N,Y,47.6866935,-122.3324886
MLS Listing,,Single Family Residential,3717 SW 34th Ave,Seattle,WA,98126,615000,1,1.0,Belvidere,1140,4000,1918,3,539,,Active,,,http://www.redfin.com/WA/Seattle/3717-34th-Ave-SW-98126/home/329190,NWMLS,1368767,N,Y,47.5705586,-122.3752812
MLS Listing,,Single Family Residential,16505 NE 16th,Bellevue,WA,98008,715000,4,1.0,East Bellevue,1070,7350,1960,3,668,,Active,,,http://www.redfin.com/WA/Bellevue/16505-NE-16th-Pl-98008/home/431473,NWMLS,1368782,N,Y,47.6241844,-122.1199263
MLS Listing,,Single Family Residential,14513 SE 79th Dr,Newcastle,WA,98059,925000,4,2.25,China Creek,2550,7591,1989,3,363,35,Active,October-6-2018 12:00 PM,October-6-2018 02:00 PM,http://www.redfin.com/WA/Newcastle/14513-SE-79th-Dr-98059/home/416977,NWMLS,1368699,N,Y,47.5302693,-122.1470094
MLS Listing,,Condo/Co-op,2840 SW Raymond St #101,Seattle,WA,98126,425000,2,2.0,High Point,1171,173136,2007,3,363,425,Active,October-4-2018 11:00 AM,October-4-2018 01:00 PM,http://www.redfin.com/WA/Seattle/2840-SW-Raymond-St-98126/unit-101/home/17071490,NWMLS,1368856,N,Y,47.5483358,-122.3694193
MLS Listing,,Single Family Residential,7704 S 106th St,Seattle,WA,98178,530000,3,1.5,Lakeridge,1320,7500,1950,4,402,,Active,October-4-2018 12:00 PM,October-4-2018 03:00 PM,http://www.redfin.com/WA/Seattle/7704-S-106th-St-98178/home/198897,NWMLS,1368745,N,Y,47.5074247,-122.2351865
MLS Listing,,Single Family Residential,4147 23rd Ave SW,Seattle,WA,98106,750000,3,2.5,Pigeon Point,2135,4776,2018,4,351,,Active,,,http://www.redfin.com/WA/Seattle/4147-23rd-Ave-SW-98106/home/17514006,NWMLS,1368712,N,Y,47.565153,-122.3625769
MLS Listing,,Condo/Co-op,125 Ferncliff Ave NE Unit E-242,Bainbridge Island,WA,98110,389000,1,1.0,Bainbridge Island,789,,2006,4,493,366,Active,October-4-2018 10:00 AM,October-4-2018 01:00 PM,http://www.redfin.com/WA/Bainbridge-Island/125-Ferncliff-Ave-NE-98110/unit-E242/home/12312788,NWMLS,1368319,N,Y,47.6251184,-122.5105811
MLS Listing,,Townhouse,3837 22nd Ave SW,Seattle,WA,98106,595000,3,2.0,Pigeon Point,1166,18487,1995,4,510,395,Active,October-6-2018 01:00 PM,October-6-2018 04:00 PM,http://www.redfin.com/WA/Seattle/3837-22nd-Ave-SW-98106/home/147332002,NWMLS,1368677,N,Y,47.5690926,-122.3614966
MLS Listing,,Condo/Co-op,5650 24th Ave NW #409,Seattle,WA,98117,359950,1,1.0,Ballard,488,,2007,4,738,254,Active,October-6-2018 01:00 PM,October-6-2018 04:00 PM,http://www.redfin.com/WA/Seattle/5650-24th-Ave-NW-98107/unit-409/home/22697894,NWMLS,1368698,N,Y,47.6698059,-122.3872012
MLS Listing,,Townhouse,6521 115th Place SE,Bellevue,WA,98006,699000,2,2.5,Newport Hills,1870,2194,1986,4,374,535,Active,,,http://www.redfin.com/WA/Bellevue/6521-115th-Pl-SE-98006/home/416479,NWMLS,1363164,N,Y,47.544572,-122.18641
MLS Listing,,Single Family Residential,10950 Forest Ave S,Seattle,WA,98178,619950,4,2.0,Lakeridge,1710,7030,1943,4,363,,Active,October-6-2018 12:00 PM,October-6-2018 03:00 PM,http://www.redfin.com/WA/Seattle/10950-Forest-Ave-S-98178/home/198509,NWMLS,1365259,N,Y,47.5044852,-122.2314285
MLS Listing,,Single Family Residential,2514 181st Ave NE,Redmond,WA,98052,990000,4,2.5,Brae Burn,2168,8000,1972,4,457,160,Active,,,http://www.redfin.com/WA/Redmond/2514-181st-Ave-NE-98052/home/502736,NWMLS,1355458,N,Y,47.6325264,-122.0989748
MLS Listing,,Single Family Residential,15522 1st Ave NW,Shoreline,WA,98177,699000,4,2.0,Shoreline,1530,6528,1951,4,457,,Active,October-7-2018 01:00 PM,October-7-2018 04:00 PM,http://www.redfin.com/WA/Shoreline/15522-1st-Ave-NW-98177/home/81109,NWMLS,1361465,N,Y,47.7421091,-122.3585276
MLS Listing,,Townhouse,5340 16th Ave S,Seattle,WA,98108,615000,4,3.0,Beacon Hill,1760,1346,2008,4,349,,Active,October-6-2018 01:00 AM,October-6-2018 04:00 AM,http://www.redfin.com/WA/Seattle/5340-16th-Ave-S-98108/home/21883759,NWMLS,1363597,N,Y,47.5536085,-122.3118418
MLS Listing,,Condo/Co-op,14200 NE 171st St Unit H103,Woodinville,WA,98072,275000,2,1.75,Downtown Woodinville,812,,1983,4,339,469,Active,October-6-2018 02:00 PM,October-6-2018 04:00 PM,http://www.redfin.com/WA/Woodinville/14200-NE-171st-St-98072/unit-H103/home/13192,NWMLS,1368488,N,Y,47.7522514,-122.1496454
MLS Listing,,Single Family Residential,4859 13th Ave S,Seattle,WA,98108,498900,3,1.5,Beacon Hill,1111,4000,1910,4,449,,Active,,,http://www.redfin.com/WA/Seattle/4859-13th-Ave-S-98108/home/169995,NWMLS,1368707,N,Y,47.5590402,-122.3163504
MLS Listing,,Single Family Residential,8998 Fletcher Bay Rd NE,Bainbridge Island,WA,98110,839000,3,2.5,Fletcher Bay,2395,33541,1989,4,350,,Active,October-4-2018 10:00 AM,October-4-2018 01:00 PM,http://www.redfin.com/WA/Bainbridge-Island/8998-Fletcher-Bay-Rd-NE-98110/home/2504180,NWMLS,1366142,N,Y,47.6435211,-122.568127
MLS Listing,,Townhouse,462 A NE Maple Leaf Place,Seattle,WA,98115,849950,3,1.75,Green Lake,1425,940,2017,4,596,,Active,October-6-2018 12:00 PM,October-6-2018 02:00 PM,http://www.redfin.com/WA/Seattle/462-NE-Maple-Leaf-Pl-98115/unit-A/home/112863636,NWMLS,1364327,N,Y,47.6826942,-122.3235008
MLS Listing,,Single Family Residential,10843 Auburn Ave S,Seattle,WA,98178,789000,5,2.0,Lakeridge,2120,6380,1952,4,372,,Active,October-6-2018 10:00 AM,October-6-2018 01:00 PM,http://www.redfin.com/WA/Seattle/10843-Auburn-Ave-S-98178/home/198659,NWMLS,1368603,N,Y,47.5054155,-122.2412431
MLS Listing,,Condo/Co-op,3420 15th Ave W #102,Seattle,WA,98119,326000,1,1.0,Interbay,609,,1960,4,535,257,Active,,,http://www.redfin.com/WA/Seattle/3420-15th-Ave-W-98119/unit-102/home/2118806,NWMLS,1367465,N,Y,47.6512574,-122.3758112
MLS Listing,,Condo/Co-op,800 N Allen Place #301,Seattle,WA,98103,529000,3,1.75,Fremont,1016,10000,1985,4,521,420,Active,,,http://www.redfin.com/WA/Seattle/800-N-Allen-Pl-98103/unit-301/home/71312,NWMLS,1368695,N,Y,47.6609777,-122.3483198
MLS Listing,,Single Family Residential,670 Vashon Place NE,Renton,WA,98059,565880,3,2.5,Highlands,1730,6809,2003,4,327,20,Active,October-6-2018 01:00 PM,October-6-2018 03:00 PM,http://www.redfin.com/WA/Renton/670-Vashon-Pl-NE-98059/home/244887,NWMLS,1368650,N,Y,47.4934598,-122.1618092
MLS Listing,,Single Family Residential,831 210th Ave NE,Sammamish,WA,98074,669950,3,2.75,Sammamish,1680,17500,1981,4,399,6,Active,,,http://www.redfin.com/WA/Sammamish/831-210th-Ave-NE-98074/home/267888,NWMLS,1368126,N,Y,47.6173251,-122.0605724
MLS Listing,,Condo/Co-op,2514 57th Ave SW #302,Seattle,WA,98116,500000,1,1.0,Alki,733,,1964,4,682,361,Active,,,http://www.redfin.com/WA/Seattle/2514-57th-Ave-SW-98116/unit-302/home/12307164,NWMLS,1367347,N,Y,47.5808305,-122.4048499
MLS Listing,,Condo/Co-op,4557 45th Ave SW #302,Seattle,WA,98116,657800,3,1.75,Alaska Junction,1300,17000,1990,4,506,543,Active,,,http://www.redfin.com/WA/Seattle/4557-45th-Ave-SW-98116/unit-302/home/14319,NWMLS,1368682,N,Y,47.5614962,-122.3898824
MLS Listing,,Single Family Residential,2704 S Irving St,Seattle,WA,98144,545000,2,1.0,Judkins,990,2031,1998,5,551,,Active,,,http://www.redfin.com/WA/Seattle/2704-S-Irving-St-98144/home/148811,NWMLS,1367956,N,Y,47.591427,-122.2970721
MLS Listing,,Condo/Co-op,1425 Western Ave Unit L308,Seattle,WA,98101,676000,2,1.5,Downtown,759,,1982,5,891,921,Active,,,http://www.redfin.com/WA/Seattle/1425-Western-Ave-98101/unit-L308/home/41511,NWMLS,1368689,N,Y,47.607911,-122.3412261
MLS Listing,,Single Family Residential,12817 Meridian Ave N,Seattle,WA,98133,950000,4,2.5,Seattle,2340,5400,2005,5,406,,Active,,,http://www.redfin.com/WA/Seattle/12817-Meridian-Ave-N-98133/home/2084765,NWMLS,1368688,N,Y,47.7225659,-122.334479
MLS Listing,,Condo/Co-op,1909 10th Ave W #308,Seattle,WA,98119,349950,0,1.0,Queen Anne,440,,2002,5,795,187,Active,,,http://www.redfin.com/WA/Seattle/1909-10th-Ave-W-98119/unit-308/home/146315063,NWMLS,1367538,N,Y,47.6362976,-122.3706326
MLS Listing,,Condo/Co-op,1926 Fairview Ave E #104,Seattle,WA,98102,469950,1,1.0,Eastlake,642,18335,1990,5,732,279,Active,,,http://www.redfin.com/WA/Seattle/1926-Fairview-Ave-E-98102/unit-104/home/14041,NWMLS,1368675,N,Y,47.6365234,-122.3277628
MLS Listing,,Townhouse,1804 NW 85th St,Seattle,WA,98117,559950,2,1.75,Ballard,925,457,2018,5,605,,Active,October-6-2018 01:00 PM,October-6-2018 04:00 PM,http://www.redfin.com/WA/Seattle/1804-NW-85th-St-98117/home/147310964,NWMLS,1368471,N,Y,47.6907577,-122.3803968
MLS Listing,,Condo/Co-op,3503 109th Place NE #2,Bellevue,WA,98004,474000,2,1.5,Bellevue,1056,497890,1975,5,449,470,Active,,,http://www.redfin.com/WA/Bellevue/3055-112th-Ave-NE-98004/unit-2/home/62142,NWMLS,1368656,N,Y,47.637892,-122.1964907
MLS Listing,,Townhouse,9309 177th Place NE #1,Redmond,WA,98052,679950,3,2.5,Avondale,1455,17570,1996,5,467,410,Active,,,http://www.redfin.com/WA/Redmond/9309-177th-Pl-NE-98052/unit-1/home/61253,NWMLS,1368491,N,Y,47.6850151,-122.1025367
MLS Listing,,Townhouse,12721 SE 41st Place #319,Bellevue,WA,98006,679900,3,2.25,Bellevue,1332,,2000,5,510,426,Active,,,http://www.redfin.com/WA/Bellevue/12721-SE-41st-Pl-98006/unit-319/home/21873,NWMLS,1368624,N,Y,47.5717605,-122.1700578
MLS Listing,,Condo/Co-op,300 N 130th St #6206,Seattle,WA,98133,404950,2,1.75,Bitter Lake,840,203091,1988,5,482,450,Active,,,http://www.redfin.com/WA/Seattle/300-N-130th-St-98133/unit-6206/home/12538762,NWMLS,1368306,N,Y,47.7237869,-122.3537358
MLS Listing,,Single Family Residential,14214 121st Ave NE,Kirkland,WA,98034,769000,4,2.5,Kingsgate,2040,8207,1968,5,377,51,Active,,,http://www.redfin.com/WA/Kirkland/14214-121st-Ave-NE-98034/home/453831,NWMLS,1368517,N,Y,47.7286221,-122.1789569
MLS Listing,,Single Family Residential,3414 NE 8th (LOT 7) Place,Renton,WA,98056,829950,5,2.75,Highlands,3077,5000,2018,5,270,,Active,,,http://www.redfin.com/WA/Renton/3414-NE-8th-St-98056/home/147309851,NWMLS,1367746,N,Y,47.4963072,-122.172972
MLS Listing,,Single Family Residential,10243 65th Ave S,Seattle,WA,98178,635000,3,1.75,Upper Rainier Beach,2660,6893,1920,5,239,,Active,October-4-2018 12:00 PM,October-4-2018 02:00 PM,http://www.redfin.com/WA/Seattle/10243-65th-Ave-S-98178/home/176892,NWMLS,1368325,N,Y,47.50844,-122.252679
MLS Listing,,Townhouse,10106 4th Ave NW Unit B,Seattle,WA,98177,575000,3,2.5,Crown Hill,1330,1430,2007,5,432,,Active,,,http://www.redfin.com/WA/Seattle/10106-4th-Ave-NW-98177/unit-B/home/18659773,NWMLS,1368611,N,Y,47.702837,-122.3615631
MLS Listing,,Condo/Co-op,1550 Eastlake Ave E #301,Seattle,WA,98102,538000,1,1.0,Eastlake,763,,1997,5,705,334,Active,October-4-2018 10:30 AM,October-4-2018 12:30 PM,http://www.redfin.com/WA/Seattle/1550-Eastlake-Ave-E-98102/unit-301/home/2086381,NWMLS,1362855,N,Y,47.6336263,-122.3252674
MLS Listing,,Single Family Residential,8622 22nd Ave SW,Seattle,WA,98106,629000,5,2.0,Westwood Village,2490,7662,1918,5,253,,Active,October-6-2018 01:00 PM,October-6-2018 04:00 PM,http://www.redfin.com/WA/Seattle/8622-22nd-Ave-SW-98106/home/473188,NWMLS,1365205,N,Y,47.5258254,-122.361484
MLS Listing,,Townhouse,2709 14th Ave S Unit A,Seattle,WA,98144,675000,2,1.75,Beacon Hill,1310,968,2016,5,515,,Active,,,http://www.redfin.com/WA/Seattle/2709-14th-Ave-S-98144/unit-A/home/109490547,NWMLS,1367017,N,Y,47.5791869,-122.3149876
MLS Listing,,Vacant Land,1115 N 33rd Place,Renton,WA,98056,399900,0,,Lower Kennydale,,5100,,5,,,Active,,,http://www.redfin.com/WA/Renton/1115-N-33rd-Pl-98056/home/26787863,NWMLS,1364775,N,Y,47.5213703,-122.2068485
MLS Listing,,Condo/Co-op,2415 2nd Ave #527,Seattle,WA,98121,510000,1,1.0,Belltown,531,52560,1994,5,960,393,Active,,,http://www.redfin.com/WA/Seattle/2415-2nd-Ave-98121/unit-527/home/38609,NWMLS,1368474,N,Y,47.6148461,-122.3475339
MLS Listing,,Single Family Residential,12835 NE 108th Place,Kirkland,WA,98033,899000,4,2.75,North Rose Hill,2100,8075,1977,5,428,,Active,,,http://www.redfin.com/WA/Kirkland/12835-NE-108th-Pl-98033/home/513190,NWMLS,1366329,N,Y,47.6972668,-122.1685274
MLS Listing,,Condo/Co-op,2600 2nd Ave #501,Seattle,WA,98121,460000,1,0.75,Belltown,685,25918,1993,5,672,535,Active,,,http://www.redfin.com/WA/Seattle/2600-2nd-Ave-98121/unit-501/home/12594,NWMLS,1368525,N,Y,47.6163328,-122.3491116
MLS Listing,,Townhouse,5929 California Ave SW Unit B,Seattle,WA,98136,515000,2,1.75,West Seattle,1232,697,2008,5,418,,Active,,,http://www.redfin.com/WA/Seattle/5929-California-Ave-SW-98136/unit-B/home/17503028,NWMLS,1364597,N,Y,47.5494157,-122.3873689
MLS Listing,,Vacant Land,4707 C S Graham St,Seattle,WA,98118,125000,0,,Seward Park,,5004,,5,,,Active,,,http://www.redfin.com/WA/Seattle/4707-C-S-Graham-St-98118/home/146400638,NWMLS,1367400,N,Y,47.54526,-122.273058
MLS Listing,,Single Family Residential,10301 40th Ave NE,Seattle,WA,98125,875000,3,2.25,Meadowbrook,2110,6510,1971,5,415,,Active,October-7-2018 01:00 PM,October-7-2018 04:00 PM,http://www.redfin.com/WA/Seattle/10301-40th-Ave-NE-98125/home/112731,NWMLS,1361477,N,Y,47.7030857,-122.2857289
MLS Listing,,Single Family Residential,10556 39th Ave NE,Seattle,WA,98125,699000,4,1.5,Meadowbrook,1360,6000,1955,5,514,,Active,October-6-2018 01:00 PM,October-6-2018 04:00 PM,http://www.redfin.com/WA/Seattle/10556-39th-Ave-NE-98125/home/113741,NWMLS,1361460,N,Y,47.7064441,-122.2865019
MLS Listing,,Townhouse,1112 13th Ave Unit E,Seattle,WA,98122,745000,2,1.75,Capitol Hill,1073,588,2018,5,694,,Active,October-6-2018 01:30 PM,October-6-2018 03:30 PM,http://www.redfin.com/WA/Seattle/1112-13th-Ave-98122/unit-E/home/147307391,NWMLS,1363103,N,Y,47.6119945,-122.3151696
MLS Listing,,Condo/Co-op,10110 Greenwood Ave N #203,Seattle,WA,98133,428000,2,1.75,Greenwood,978,11723,1979,5,438,411,Active,,,http://www.redfin.com/WA/Seattle/10110-Greenwood-Ave-N-98133/unit-203/home/147307329,NWMLS,1368060,N,Y,47.702684,-122.3550225
MLS Listing,,Single Family Residential,9041 13th Ave SW,Seattle,WA,98106,579950,4,2.0,Highland Park,1690,4440,1942,5,343,,Active,October-4-2018 11:00 AM,October-4-2018 01:00 PM,http://www.redfin.com/WA/Seattle/9041-13th-Ave-SW-98106/home/475125,NWMLS,1368120,N,Y,47.5217121,-122.3520324
MLS Listing,,Condo/Co-op,401 9th Ave N #416,Seattle,WA,98109,519000,1,1.0,South Lake Union,640,,2008,5,811,440,Active,October-6-2018 12:00 PM,October-6-2018 03:00 PM,http://www.redfin.com/WA/Seattle/401-9th-Ave-N-98109/unit-416/home/21616504,NWMLS,1368480,N,Y,47.6223847,-122.3401305
MLS Listing,,Single Family Residential,1715 168th AVE SE,Bellevue,WA,98008,970000,4,2.25,Phantom Lake,2900,8242,1976,5,334,,Active,,,http://www.redfin.com/WA/Bellevue/1715-168th-Ave-SE-98008/home/429343,NWMLS,1366802,N,Y,47.5951248,-122.1160762
MLS Listing,,Single Family Residential,12551 Dayton Ave N,Seattle,WA,98133,699950,4,1.75,Broadview,2340,6000,1955,5,299,,Active,,,http://www.redfin.com/WA/Seattle/12551-Dayton-Ave-N-98133/home/97872,NWMLS,1367845,N,Y,47.7210692,-122.3532489
MLS Listing,,Condo/Co-op,1639 Harbor Ave SW #103,Seattle,WA,98126,699990,2,1.75,Alki,1128,17296,1985,5,621,533,Active,,,http://www.redfin.com/WA/Seattle/1639-Harbor-Ave-SW-98126/unit-103/home/64047,NWMLS,1360535,N,Y,47.588691,-122.3808502
MLS Listing,,Townhouse,1533 NW 65th St,Seattle,WA,98117,929500,4,2.5,Ballard,1857,4700,2018,5,501,,Active,October-6-2018 10:00 AM,October-6-2018 12:00 PM,http://www.redfin.com/WA/Seattle/1533-NW-65th-St-98117/home/147306393,NWMLS,1368088,N,Y,47.6759959,-122.3778593
MLS Listing,,Single Family Residential,18608 Angeline Ave NE,Suquamish,WA,98392,899900,3,1.75,Suquamish,3196,13068,1981,5,282,,Active,,,http://www.redfin.com/WA/Suquamish/18608-Angeline-Ave-NE-98392/home/2383103,NWMLS,1367675,N,Y,47.7317444,-122.5504556
MLS Listing,,Condo/Co-op,17211 NE 45th St #78,Redmond,WA,98052,395000,2,1.75,Lake Sammamish,974,381078,1968,5,406,460,Active,,,http://www.redfin.com/WA/Redmond/17211-NE-45th-St-98052/unit-78/home/7517,NWMLS,1367878,N,Y,47.6498708,-122.1107143
MLS Listing,,Single Family Residential,3727 SW Ida St,Seattle,WA,98126,500000,1,1.0,Fauntleroy,1200,6120,1924,5,417,,Active,,,http://www.redfin.com/WA/Seattle/3727-SW-Ida-St-98126/home/469157,NWMLS,1368432,N,Y,47.533995,-122.380516
MLS Listing,,Condo/Co-op,11104 NE 68th St Unit B201,Kirkland,WA,98033,439000,2,0.75,Houghton,940,101059,1979,5,467,309,Active,,,http://www.redfin.com/WA/Kirkland/11104-NE-68th-St-98033/unit-B201/home/147305911,NWMLS,1368278,N,Y,47.6668189,-122.191947
MLS Listing,,Single Family Residential,266 Elma Ct NE,Renton,WA,98059,740000,4,2.5,Renton,2420,5010,2010,5,306,9,Active,,,http://www.redfin.com/WA/Renton/266-Elma-Ct-NE-98059/home/22440690,NWMLS,1363944,N,Y,47.4861777,-122.1538704
MLS Listing,,Townhouse,12333 NE 28th Ave Unit B,Seattle,WA,98125,549000,3,1.5,Victory Heights,1268,1191,2008,5,433,,Active,,,http://www.redfin.com/WA/Seattle/12333-28th-Ave-NE-98125/unit-B/home/22440984,NWMLS,1368410,N,Y,47.7184868,-122.2981349
MLS Listing,,Single Family Residential,6027 29th Ave SW,Seattle,WA,98126,615000,3,2.0,High Point,1600,2310,2006,5,384,88,Active,October-6-2018 11:00 AM,October-6-2018 01:00 PM,http://www.redfin.com/WA/Seattle/6027-29th-Ave-SW-98126/home/2115498,NWMLS,1368161,N,Y,47.5474773,-122.3703742
MLS Listing,,Single Family Residential,14436 160th (Lot 24) Ct SE,Renton,WA,98059,899995,4,2.5,Highlands,2989,8067,2019,5,301,157,Active,,,http://www.redfin.com/WA/Renton/14436-160th-Ave-SE-98059/home/147305007,NWMLS,1368385,N,Y,47.4735616,-122.1265232
MLS Listing,,Single Family Residential,4644 SE Greenshore Dr,Port Orchard,WA,98367,299950,3,2.5,Long Lake,1768,10019,2006,5,170,,Active,,,http://www.redfin.com/WA/Port-Orchard/4644-SE-Green-Shores-Dr-98367/home/2174499,NWMLS,1366128,N,Y,47.4943714,-122.5915641
MLS Listing,,Single Family Residential,4836 S Gazelle St,Seattle,WA,98118,599000,5,2.75,Rainier Beach,3300,7208,1905,5,182,,Active,October-6-2018 11:00 AM,October-6-2018 01:00 PM,http://www.redfin.com/WA/Seattle/4836-S-Gazelle-St-98118/home/175357,NWMLS,1368372,N,Y,47.5127047,-122.2713059
MLS Listing,,Single Family Residential,1316 S Edmunds St,Seattle,WA,98108,599950,5,1.75,Beacon Hill,2520,8137,1954,5,238,,Active,,,http://www.redfin.com/WA/Seattle/1316-S-Edmunds-St-98108/home/169785,NWMLS,1368323,N,Y,47.559626,-122.3151696
MLS Listing,,Single Family Residential,2805 NE 117th St,Seattle,WA,98125,949950,5,2.0,Meadowbrook,3400,12930,1947,5,279,,Active,,,http://www.redfin.com/WA/Seattle/2805-NE-117th-St-98125/home/110677,NWMLS,1364025,N,Y,47.7136317,-122.2971872
MLS Listing,,Single Family Residential,4428 3rd Ave NW,Seattle,WA,98107,775000,3,2.5,Fremont,1790,4400,1987,5,433,,Active,,,http://www.redfin.com/WA/Seattle/4428-3rd-Ave-NW-98107/home/303424,NWMLS,1366357,N,Y,47.6611378,-122.3605185
MLS Listing,,Townhouse,8526 Nesbit Ave N Unit B,Seattle,WA,98103,499990,3,1.75,Green Lake,1074,633,1999,5,466,,Active,,,http://www.redfin.com/WA/Seattle/8526-Nesbit-Ave-N-98103/unit-B/home/105675,NWMLS,1368045,N,Y,47.6913875,-122.3430548
MLS Listing,,Condo/Co-op,1400 Hubbell Place #1113,Seattle,WA,98101,359950,1,1.0,Seattle,602,25765,1957,5,598,419,Active,October-4-2018 10:30 AM,October-4-2018 12:00 PM,http://www.redfin.com/WA/Seattle/1400-Hubbell-Pl-98101/unit-1113/home/6701,NWMLS,1367078,N,Y,47.6121493,-122.3297118
MLS Listing,,Single Family Residential,7025 14th Ave SW,Seattle,WA,98106,725000,4,2.5,Highland Park,2640,7201,1991,5,275,,Active,,,http://www.redfin.com/WA/Seattle/7025-14th-Ave-SW-98106/home/161528,NWMLS,1368260,N,Y,47.5402833,-122.3529251
MLS Listing,,Single Family Residential,227 27th Ave E Unit B,Seattle,WA,98112,950000,3,2.25,Madison Valley,1740,1517,2014,5,546,,Active,,,http://www.redfin.com/WA/Seattle/227-27th-Ave-E-98112/unit-B/home/144424592,NWMLS,1367200,N,Y,47.6209863,-122.2977578
MLS Listing,,Single Family Residential,3031 S Holden St Unit D,Seattle,WA,98108,474900,3,2.5,Beacon Hill,1530,2500,1997,5,310,,Active,,,http://www.redfin.com/WA/Seattle/3031-S-Holden-St-98108/unit-D/home/147303136,NWMLS,1359320,N,Y,47.5336286,-122.2923671
MLS Listing,,Townhouse,5938 123rd Ave SE,Bellevue,WA,98006,439000,3,1.5,Newport Hills,1105,346737,1967,5,397,,Active,,,http://www.redfin.com/WA/Bellevue/5938-123rd-Ave-SE-98006/unit-5938/home/14188,NWMLS,1367685,N,Y,47.5499591,-122.1754126
MLS Listing,,Single Family Residential,10449 1st Ave S,Seattle,WA,98168,499900,4,2.5,Seattle,1780,8700,1941,5,281,,Active,,,http://www.redfin.com/WA/Seattle/10449-1st-Ave-S-98168/home/182157,NWMLS,1368276,N,Y,47.508906,-122.334049
MLS Listing,,Single Family Residential,13322 124th Ave NE,Kirkland,WA,98034,675000,3,2.5,Totem Lake,1980,9000,1990,5,341,,Active,,,http://www.redfin.com/WA/Kirkland/13322-124th-Ave-NE-98034/home/454576,NWMLS,1363151,N,Y,47.7201963,-122.1743854
MLS Listing,,Single Family Residential,8306 Stone Ave N,Seattle,WA,98103,775000,3,1.75,Green Lake,1420,5000,1956,5,546,,Active,,,http://www.redfin.com/WA/Seattle/8306-Stone-Ave-N-98103/home/307205,NWMLS,1341896,N,Y,47.6893107,-122.3414632
MLS Listing,,Townhouse,6356 138th Ave NE #215,Redmond,WA,98052,459000,2,1.5,Bridle Trails,1114,,1969,5,412,509,Active,,,http://www.redfin.com/WA/Redmond/6356-138th-Ave-NE-98052/unit-215/home/28447158,NWMLS,1367974,N,Y,47.6632609,-122.1571095
MLS Listing,,Single Family Residential,12065 104th Ave NE,Kirkland,WA,98034,699980,3,2.75,Kirkland,1760,8550,1975,5,398,,Active,October-6-2018 12:00 PM,October-6-2018 03:00 PM,http://www.redfin.com/WA/Kirkland/12065-104th-Ave-NE-98034/home/457741,NWMLS,1368184,N,Y,47.707926,-122.2026062
MLS Listing,,Single Family Residential,1301 176th Ave NE,Bellevue,WA,98008,925000,3,1.75,Tam O'shanter,1490,10844,1975,5,621,307,Active,October-4-2018 10:30 AM,October-4-2018 12:30 PM,http://www.redfin.com/WA/Bellevue/1301-176th-Ave-NE-98008/home/502587,NWMLS,1366359,N,Y,47.6208256,-122.1055005
MLS Listing,,Mobile/Manufactured Home,12423 NE Douglas Dr,Kingston,WA,98346,259000,3,3.0,Jefferson Beach,1948,16553,2000,5,133,12,Active,,,http://www.redfin.com/WA/Kingston/12423-NE-Douglas-Dr-98346/home/2374431,NWMLS,1368234,N,Y,47.7496104,-122.4818185
MLS Listing,,Single Family Residential,800 Hillandale Dr E,Port Orchard,WA,98366,260000,4,2.5,Port Orchard,1634,15682,1980,5,159,,Active,,,http://www.redfin.com/WA/Port-Orchard/800-Hillandale-Dr-E-98366/home/2498656,NWMLS,1362636,N,Y,47.5415128,-122.5830744
MLS Listing,,Townhouse,6240 C Corson Ave S,Seattle,WA,98108,674950,2,2.0,Georgetown,1490,862,2017,5,453,,Active,October-6-2018 01:00 PM,October-6-2018 04:00 PM,http://www.redfin.com/WA/Seattle/6240-Corson-Ave-S-98108/home/113362133,NWMLS,1367879,N,Y,47.5463212,-122.3216043
MLS Listing,,Single Family Residential,2022 12th Ave W,Seattle,WA,98119,998000,3,2.5,Queen Anne,1710,2809,1988,5,584,,Active,,,http://www.redfin.com/WA/Seattle/2022-12th-Ave-W-98119/home/130570,NWMLS,1367461,N,Y,47.6385231,-122.3722607
MLS Listing,,Condo/Co-op,2911 2nd Ave #1118,Seattle,WA,98121,599900,1,1.0,Belltown,771,25440,2009,5,778,552,Active,,,http://www.redfin.com/WA/Seattle/2911-2nd-Ave-98121/unit-1118/home/21616983,NWMLS,1368191,N,Y,47.6176091,-122.3523038
MLS Listing,,Single Family Residential,7717 13th Ave SW,Seattle,WA,98106,449900,3,1.5,Highland Park,1330,5600,1977,5,338,,Active,,,http://www.redfin.com/WA/Seattle/7717-13th-Ave-SW-98106/home/475620,NWMLS,1368100,N,Y,47.5337344,-122.3519999
MLS Listing,,Single Family Residential,12833 7th Ave S,Burien,WA,98168,424950,3,1.0,Cedarhurst,1310,7152,1944,5,324,,Active,October-6-2018 11:00 AM,October-6-2018 02:00 PM,http://www.redfin.com/WA/Burien/12833-7th-Ave-S-98168/home/190228,NWMLS,1368021,N,Y,47.4874867,-122.3249487
MLS Listing,,Single Family Residential,12803 195th Place SE,Issaquah,WA,98027,850000,4,2.5,Issaquah,2820,290545,1986,5,301,,Active,,,http://www.redfin.com/WA/Issaquah/12803-195th-Pl-SE-98027/home/409671,NWMLS,1367752,N,Y,47.487236,-122.0835481
MLS Listing,,Single Family Residential,3726 S Holly Park Dr,Seattle,WA,98118,499950,3,2.5,Seattle,1550,2543,2005,5,323,78,Active,,,http://www.redfin.com/WA/Seattle/3726-S-Holly-Park-Dr-98118/home/2062623,NWMLS,1367553,N,Y,47.5364666,-122.2854017
MLS Listing,,Single Family Residential,5019 36th Ave NE,Seattle,WA,98105,975000,5,1.75,Bryant,2540,4000,1939,5,384,,Active,,,http://www.redfin.com/WA/Seattle/5019-36th-Ave-NE-98105/home/314080,NWMLS,1365828,N,Y,47.6654438,-122.2893089
MLS Listing,,Single Family Residential,588 Lingering Pine Dr NW,Issaquah,WA,98027,815000,4,3.25,Talus,2452,2741,2006,5,332,20,Active,,,http://www.redfin.com/WA/Issaquah/588-Lingering-Pine-Dr-NW-98027/home/2084082,NWMLS,1368181,N,Y,47.5375325,-122.0721532
MLS Listing,,Townhouse,2207 3rd Ave N,Seattle,WA,98109,850000,3,2.0,Queen Anne,1490,1312,2001,5,570,,Active,,,http://www.redfin.com/WA/Seattle/2207-3rd-Ave-N-98109/home/132626,NWMLS,1366491,N,Y,47.638544,-122.352209
MLS Listing,,Condo/Co-op,12434 Ambaum Blvd SW #211,Burien,WA,98146,136500,1,1.0,North Burien,582,37800,1983,5,235,280,Active,,,http://www.redfin.com/WA/Seattle/12434-Ambaum-Blvd-SW-98146/unit-211/home/18213,NWMLS,1367190,N,Y,47.4910852,-122.3492255
MLS Listing,,Single Family Residential,3205 36th Ave S,Seattle,WA,98144,765000,3,2.5,Mt Baker,1790,3876,1904,5,427,,Active,,,http://www.redfin.com/WA/Seattle/3205-36th-Ave-S-98144/home/171744,NWMLS,1368003,N,Y,47.5749904,-122.2879657
MLS Listing,,Condo/Co-op,12700 NE 8th St Unit E-205,Bellevue,WA,98005,385000,2,1.0,Bellevue,926,301850,1979,5,416,422,Active,October-7-2018 01:00 PM,October-7-2018 04:00 PM,http://www.redfin.com/WA/Bellevue/12700-NE-8th-St-98005/unit-E205/home/58110,NWMLS,1367621,N,Y,47.6180426,-122.1703931
MLS Listing,,Townhouse,11021 2ND Ave SW #13,Seattle,WA,98146,394995,3,2.5,Seattle,1932,,2005,5,204,210,Active,,,http://www.redfin.com/WA/Seattle/11021-2nd-Ave-SW-98146/unit-13/home/2070195,NWMLS,1368144,N,Y,47.5045028,-122.3369663
MLS Listing,,Condo/Co-op,1150 Sunset Blvd NE #121,Renton,WA,98056,188500,2,1.0,Highlands,891,,1979,5,212,424,Active,,,http://www.redfin.com/WA/Renton/1150-Sunset-Blvd-NE-98056/unit-121/home/39000,NWMLS,1368156,N,Y,47.5007784,-122.1872017
MLS Listing,,Single Family Residential,6824 S 124th St,Seattle,WA,98178,439950,4,1.75,Skyway,1580,6240,1944,5,278,,Active,October-6-2018 01:00 PM,October-6-2018 03:00 PM,http://www.redfin.com/WA/Seattle/6824-S-124th-St-98178/home/196270,NWMLS,1368150,N,Y,47.4926714,-122.2480057
MLS Listing,,Single Family Residential,9765 NE 134th St,Kirkland,WA,98034,860000,5,2.5,North Juanita,2060,7140,1976,5,417,,Active,,,http://www.redfin.com/WA/Kirkland/9765-NE-134th-St-98034/home/279805,NWMLS,1368153,N,Y,47.7200435,-122.211118
MLS Listing,,Single Family Residential,11816 NE 142nd St,Kirkland,WA,98034,695000,4,2.25,Kingsgate,1906,7608,1968,5,365,52,Active,,,http://www.redfin.com/WA/Kirkland/11816-NE-142nd-St-98034/home/455626,NWMLS,1367622,N,Y,47.7283659,-122.1827854
MLS Listing,,Single Family Residential,14223 2nd Ave SW,Burien,WA,98166,459950,4,1.0,Downtown Burien,1580,9800,1954,6,291,,Active,October-6-2018 12:00 AM,October-6-2018 03:00 PM,http://www.redfin.com/WA/Burien/14223-2nd-Ave-SW-98166/home/183527,NWMLS,1368139,N,Y,47.4755908,-122.3368107
MLS Listing,,Condo/Co-op,3028 Western Ave #315,Seattle,WA,98121,299950,0,1.0,Belltown,450,14417,1991,6,667,344,Active,,,http://www.redfin.com/WA/Seattle/3028-Western-Ave-98121/unit-315/home/38843,NWMLS,1365970,N,Y,47.6179385,-122.3554681
MLS Listing,,Single Family Residential,10208 NE 140th Place,Kirkland,WA,98034,620000,4,1.5,Juanita,1500,9128,1968,6,413,,Active,,,http://www.redfin.com/WA/Kirkland/10208-NE-140th-Pl-98034/home/457877,NWMLS,1367279,N,Y,47.7266958,-122.2042568
MLS Listing,,Single Family Residential,2725 124th Ave SE,Bellevue,WA,98005,899950,4,3.25,Woodridge,2020,3064,1996,6,446,133,Active,,,http://www.redfin.com/WA/Bellevue/2725-124th-Ave-SE-98005/home/507654,NWMLS,1366362,N,Y,47.585532,-122.17692
MLS Listing,,Single Family Residential,2665 Maryland Way E,Port Orchard,WA,98366,279900,3,2.0,Port Orchard,1344,5227,2014,6,208,,Active,October-6-2018 11:00 AM,October-6-2018 01:00 PM,http://www.redfin.com/WA/Port-Orchard/2665-Maryland-Way-E-98366/home/49700150,NWMLS,1367864,N,Y,47.567838,-122.5566714
MLS Listing,,Townhouse,11310 SE 65th St,Bellevue,WA,98006,558000,2,2.25,Bellevue,1700,2823,1986,6,328,535,Active,,,http://www.redfin.com/WA/Bellevue/11310-SE-65th-St-98006/home/415232,NWMLS,1364209,N,Y,47.545537,-122.188362
MLS Listing,,Single Family Residential,3310 SW Admiral Wy,Seattle,WA,98126,728500,4,2.5,Admiral,2260,4750,1984,6,322,,Active,October-6-2018 01:00 PM,October-6-2018 04:00 PM,http://www.redfin.com/WA/Seattle/3310-SW-Admiral-Way-98126/home/150851,NWMLS,1367595,N,Y,47.5758502,-122.3745485
MLS Listing,,Single Family Residential,5922 17th Ave SW,Seattle,WA,98106,574888,3,2.0,Puget Ridge,1840,6372,1952,6,312,,Active,,,http://www.redfin.com/WA/Seattle/5922-17th-Ave-SW-98106/home/161536,NWMLS,1367666,N,Y,47.5493166,-122.3556027
MLS Listing,,Townhouse,8503 10th Ave NW,Seattle,WA,98117,663000,2,2.25,Crown Hill,1230,751,2012,6,539,,Active,,,http://www.redfin.com/WA/Seattle/8503-10th-Ave-NW-98117/home/44536062,NWMLS,1367647,N,Y,47.6908237,-122.3695751
MLS Listing,,Single Family Residential,9315 NE 175th St,Bothell,WA,98011,695000,5,2.75,West Hill,2220,11865,1962,6,313,,Active,,,http://www.redfin.com/WA/Bothell/9315-NE-175th-St-98011/home/286125,NWMLS,1312710,N,Y,47.754962,-122.216251
MLS Listing,,Single Family Residential,3557 S Hudson St,Seattle,WA,98118,650000,3,1.75,Columbia City,1740,3300,1910,6,374,,Active,October-4-2018 11:00 AM,October-4-2018 01:00 PM,http://www.redfin.com/WA/Seattle/3557-S-Hudson-St-98118/home/172500,NWMLS,1363687,N,Y,47.5568748,-122.2864593
MLS Listing,,Single Family Residential,10723 Interlake Ave N,Seattle,WA,98133,595000,3,1.75,Northgate,1580,5060,1930,6,377,,Active,October-7-2018 01:00 PM,October-7-2018 03:00 PM,http://www.redfin.com/WA/Seattle/10723-Interlake-Ave-N-98133/home/105277,NWMLS,1364923,N,Y,47.7075943,-122.3410117
MLS Listing,,Single Family Residential,10504 160th Ct NE,Redmond,WA,98052,735000,4,1.75,Education Hill,1661,7725,1980,6,443,,Active,,,http://www.redfin.com/WA/Redmond/10504-160th-Ct-NE-98052/home/323607,NWMLS,1365300,N,Y,47.6945076,-122.1251554
MLS Listing,,Condo/Co-op,14150 SE 17th Place Unit B-1,Bellevue,WA,98007,259950,1,1.0,College Hill,642,,1979,6,405,347,Active,,,http://www.redfin.com/WA/Bellevue/14150-SE-17th-Pl-98007/unit-B-1/home/147297415,NWMLS,1368033,N,Y,47.5957896,-122.1522092
MLS Listing,,Single Family Residential,17706 NE 134th Place,Redmond,WA,98052,929000,3,2.5,English Hill,2500,35002,1980,6,372,,Active,,,http://www.redfin.com/WA/Redmond/17706-NE-134th-Pl-98052/home/451090,NWMLS,1368013,N,Y,47.720528,-122.1031761
MLS Listing,,Condo/Co-op,14600 NE 32nd St Unit I-9,Bellevue,WA,98007,375000,3,1.75,Microsoft,1062,397598,1976,6,353,393,Active,,,http://www.redfin.com/WA/Bellevue/14600-NE-32nd-St-98007/unit-I9/home/5574,NWMLS,1367549,N,Y,47.6396239,-122.1444238
MLS Listing,,Single Family Residential,8436 SW Tillicum Rd,Seattle,WA,98136,950000,3,1.75,Fauntleroy,3110,11000,1961,6,305,,Active,,,http://www.redfin.com/WA/Seattle/8436-Tillicum-Rd-SW-98136/home/158270,NWMLS,1366828,N,Y,47.5283878,-122.3899253
MLS Listing,,Single Family Residential,11136 NE 160th Place,Bothell,WA,98011,984950,4,2.25,Bothell,3210,15876,1993,6,307,,Active,,,http://www.redfin.com/WA/Bothell/11136-NE-160th-Pl-98011/home/284062,NWMLS,1367997,N,Y,47.7446059,-122.1929391
MLS Listing,,Single Family Residential,1427 S 129th St,Burien,WA,98168,149000,1,1.0,Burien,680,6714,1946,6,219,,Active,,,http://www.redfin.com/WA/Burien/1427-S-129th-St-98168/home/189321,NWMLS,1367890,N,Y,47.4874857,-122.3142128
MLS Listing,,Single Family Residential,9702 9th Ave NW,Seattle,WA,98117,988000,5,2.0,Crown Hill,2740,6075,1951,6,361,,Active,October-6-2018 01:00 PM,October-6-2018 04:00 PM,http://www.redfin.com/WA/Seattle/9702-9th-Ave-NW-98117/home/96171,NWMLS,1360759,N,Y,47.7003421,-122.3683622
MLS Listing,,Condo/Co-op,120 W Highland Dr #123,Seattle,WA,98119,435000,1,1.0,Queen Anne,501,,1921,6,868,235,Active,,,http://www.redfin.com/WA/Seattle/120-W-Highland-Dr-98119/unit-123/home/147297286,NWMLS,1365721,N,Y,47.6300183,-122.3583665
MLS Listing,,Townhouse,3941 2nd Ave NE,Seattle,WA,98105,899950,2,2.0,Wallingford,1184,1,2018,6,760,,Active,,,http://www.redfin.com/WA/Seattle/3941-2nd-Ave-NE-98105/home/147297256,NWMLS,1367908,N,Y,47.6553978,-122.3271197
MLS Listing,,Condo/Co-op,4309 34th Ave W #201,Seattle,WA,98199,549950,2,2.0,Magnolia,1219,11642,1996,6,451,403,Active,,,http://www.redfin.com/WA/Seattle/4309-34th-Ave-W-98199/unit-201/home/72215,NWMLS,1367769,N,Y,47.6597756,-122.4013435
MLS Listing,,Townhouse,9055 Fremont Ave N,Seattle,WA,98103,729000,3,2.25,Greenwood,1559,1271,2018,6,468,,Active,October-6-2018 11:00 AM,October-6-2018 01:00 PM,http://www.redfin.com/WA/Seattle/9055-Fremont-Ave-N-98103/home/147297240,NWMLS,1367391,N,Y,47.6958078,-122.3502436
MLS Listing,,Single Family Residential,9023 3rd Ave SW,Seattle,WA,98106,599950,4,2.5,Highland Park,2650,9490,1966,6,226,,Active,October-6-2018 11:00 AM,October-6-2018 02:00 PM,http://www.redfin.com/WA/Seattle/9023-3rd-Ave-SW-98106/home/474493,NWMLS,1367133,N,Y,47.5220542,-122.3392946
MLS Listing,,Single Family Residential,3521 SW Webster,Seattle,WA,98126,500000,3,1.0,Gatewood,1250,4423,1942,6,400,,Active,,,http://www.redfin.com/WA/Seattle/3521-SW-Webster-St-98126/home/469996,NWMLS,1367850,N,Y,47.535403,-122.3775985
MLS Listing,,Single Family Residential,4335 NE 2nd Ct,Renton,WA,98059,549950,4,2.25,Highlands,2190,3800,2006,6,251,,Active,,,http://www.redfin.com/WA/Renton/4335-NE-2nd-Ct-98059/home/2117548,NWMLS,1367923,N,Y,47.4863488876732,-122.160493
MLS Listing,,Vacant Land,14 S 138th St,Burien,WA,98168,199000,0,,Burien,,9800,,6,,,Active,,,http://www.redfin.com/WA/Burien/14-S-138th-St-98168/home/147297207,NWMLS,1365889,N,Y,47.4794835,-122.3337692
